state,zip_code,county,borough,longitude,latitude,entity_name,street_number,street_name
NY,11205,Kings,Brooklyn,-73.9554868,40.69034618,SKILLMART INC,1010,BEDFORD AVE
NY,10469,Bronx,Bronx,-73.85882325,40.865714,ARDENT PHARMACY INC,987-989,ALLERTON AVE
NY,10467,Bronx,Bronx,-73.86483232,40.87125921,BALDE FAMILY GENERAL MERCHANDISING LLC,756,BURKE AVENUE
NY,10467,Bronx,Bronx,-73.87283645,40.87863139,ESTRELLA MEATS FRUITS & GROCERY 2 CORP,350,E GUN HILL RD
NY,11355,Queens,Queens,-73.82831312,40.7549585,HUA-TE NY INC,42-14,MAIN  ST
NY,10452,Bronx,Bronx,-73.92468213,40.84195423,ALEX CANDY STORE CORP,1373A,OGDEN AVE
NY,10026,New York,Manhattan,-73.94873651,40.79787276,LUXURY GREENS LLC,1330,5TH AVE STORE 5
NY,10001,New York,Manhattan,-73.9926754,40.7482307,HUDSON GROUP (HG) RETAIL LLC,NA,MAIN AMTRAK LEVEL B
NY,10001,New York,Manhattan,-73.9926754,40.7482307,HUDSON GROUP (HG) RETAIL LLC,NA,33RD ST & 8TH AVE
NY,10001,New York,Manhattan,-73.9926754,40.7482307,HUDSON GROUP (HG) RETAIL LLC,NA,33RD ST & 8TH AVE
NY,11419,Queens,Queens,-73.8195252,40.6879094,124 LIBERTY LLC,124-16,LIBERTY AVE
NY,11420,Queens,Queens,-73.81523107,40.68209009,SINGHS FISH & GROCERY,125-20,111TH AVE
NY,10462,Bronx,Bronx,-73.86315703,40.84568414,SANAA DISCOUNT INC,778,MORRIS PARK AVE
NY,10033,New York,Manhattan,-73.93599317,40.84400428,CRH RX CORP,174,AUDUBON AVE
NY,10013,New York,Manhattan,-74.00495796,40.72627303,FRAICHE CORP,30,VANDAM ST
NY,10010,New York,Manhattan,-73.98001065,40.73943375,PITKIN SUPER DEALS INC,441,2ND AVE
NY,11229,Kings,Brooklyn,-73.95605836,40.59843606,NEW STAR GROCERY STORE INC,2115,E 15TH STREET
NY,11226,Kings,Brooklyn,-73.95872255,40.65110786,ADAM DELI GROCERY II CORP,863,FLATBUSH AVE
NY,10017,New York,Manhattan,-73.9774131,40.75236837,1923 GCT LLC,89,E 42ND ST
NY,10011,New York,Manhattan,-73.99878929,40.73457951,CW PROJECTS LLC,434,6TH AVENUE STORE # 4
NY,11356,Queens,Queens,-73.83551804,40.78737887,AI MART CP INC,132-19,14TH AVE
NY,11355,Queens,Queens,-73.82773611,40.75456611,YING FU MARKET INC,42-35,MAIN ST #1P4
NY,11220,Kings,Brooklyn,-74.00711521,40.64148908,WONDER 7TH GROCERY INC,5120,7TH AVENUE
NY,10312,Richmond,Staten Island,-74.16883238,40.55965123,ALDI INC,3231,RICHMOND AVE
NY,10455,Bronx,Bronx,-73.90365981,40.81244499,JOSE MINI MARKET INC,549,SOUTHERN BLVD
NY,10303,Richmond,Staten Island,-74.14696106,40.63137237,PURNIMA CONVENIENCE STORE INC,280,MORNING STAR ROAD
NY,10305,Richmond,Staten Island,-74.06711838,40.61718547,NEW NAN FONG HONG TRADING INC,21 & 27,SYLVATON TERRACE
NY,11368,Queens,Queens,-73.86248061,40.74704456,ERIC CONVENIENCE STORE INC,102-06,43RD AVE
NY,11208,Kings,Brooklyn,-73.88277747,40.6737172,YOLANDA GROCERY STORE INC,2428,PITKIN
NY,11238,Kings,Brooklyn,-73.95912463,40.6801993,ZEENA BAKERY LLC,999,ATLANTIC AVE
NY,11215,Kings,Brooklyn,-73.98809056,40.66681676,513 DELI & GRILL INC,513,5TH AVE
NY,10452,Bronx,Bronx,-73.92943433,40.83311828,LA FARMA LLC,1003,OGDEN AVE
NY,11373,Queens,Queens,-73.89004475,40.74624057,G MART NY INC,75-01,BROADWAY
NY,10459,Bronx,Bronx,-73.89222354,40.82082354,CASITA MARIA DELI CORP,1020-1022,EAST 163RD STREET
NY,11375,Queens,Queens,-73.85227271,40.71079761,NEW ARIA CORP,100-27,METROPOLITAN AVENUE
NY,10029,New York,Manhattan,-73.94571593,40.79958803,YUMMILICIOUS DELI #3 CORP,23,E 115TH ST
NY,10305,Richmond,Staten Island,-74.0676603,40.61713051,ATJ ENTERPRISE INC,1077,BAY ST
NY,11362,Queens,Queens,-73.73646892,40.76920267,CLOUD MUNCHIES CORP,251-16,NORTHERN BLVD
NY,10460,Bronx,Bronx,-73.8845759,40.84626216,80 BRONX FINEST MARKET INC,2109,SOUTHERN BLVD
NY,11354,Queens,Queens,-73.82512431,40.76431049,CLOUD GROCERY INC,14118,NORTHERN BLVD
NY,11223,Kings,Brooklyn,-73.96125631,40.59659585,TREE OF LIFE RX INC,2472,CONEY ISLAND AVENUE
NY,10461,Bronx,Bronx,-73.84457737,40.84204074,77 SWIPER DELI CORP,2742,E TREMONT AVE
NY,10475,Bronx,Bronx,-73.83154007,40.86922991,MUNCHIES DELI CORP,500,BAYCHESTER AVE
NY,10466,Bronx,Bronx,-73.85775649,40.89232444,4158 MEAT MARKET INC,4158,WHITE PLAINS RD
NY,10310,Richmond,Staten Island,-74.1095217,40.63012921,A&H PELTON CONVENIENCE CORP,607,FOREST AVE
NY,11374,Queens,Queens,-73.86555438,40.72050552,SAMARKAND UZ INC,62-02A,WOODHAVEN BLVD
NY,10458,Bronx,Bronx,-73.89611442,40.86106158,LA TIA DELI GROCERY INC,253,E 188TH STREET
NY,10022,New York,Manhattan,-73.96708064,40.75851084,METZ CULINARY MANAGEMENT LLC,231,E 55TH ST
NY,11101,Queens,Queens,-73.93949936,40.74868285,EAST ASIAN FOOD CORPORATION,2802,42ND RD
NY,11216,Kings,Brooklyn,-73.93796099,40.68183269,SAJOMA GRILL AND DELI CORP,442,MARCUS GARVEY BLVD
NY,11230,Kings,Brooklyn,-73.96555623,40.63304364,GARCIAS GROCERY NY CORP,1201,FOSTER AVE
NY,11373,Queens,Queens,-73.87422701,40.74224701,SAHUAYO BAKERY CORP,90-43,CORONA AVE
NY,10306,Richmond,Staten Island,-74.11067505,40.57083831,DORP LANE DELI INC,360,NEW DORP LANE
NY,11235,Kings,Brooklyn,-73.96084099,40.58822376,2800 CIA RETAIL CORP,2800,CONEY ISLAND AVENUE
NY,10458,Bronx,Bronx,-73.88390687,40.86696669,FRESH & TASTY SUSHI INC,2870,WEBSTER AVE
NY,10460,Bronx,Bronx,-73.88698066,40.83726687,JIMENEZ AMABLE,931,EAST 174TH STREET
NY,10002,New York,Manhattan,-73.99105993,40.7108883,NY HARVEST TRADING INC,227,CHERRY ST
NY,11222,Kings,Brooklyn,-73.95134169,40.72320236,NICK&SONS BAKERY LLC,892,LORIMER ST
NY,10305,Richmond,Staten Island,-74.09484055,40.58384195,AOK 1139 INC,1854,HYLAN BLVD
NY,10002,New York,Manhattan,-73.98301833,40.71988447,BONNES SAVEURS LLC,196,STANTON ST
NY,11221,Kings,Brooklyn,-73.92660854,40.69878286,MR AVOCADO DELI & GRILL CORPORATION,176,CENTRAL AVE
NY,10462,Bronx,Bronx,-73.86008322,40.84664211,MACCA HALAL MARKET 2 INC,869,MORRIS PARK AVE
NY,11226,Kings,Brooklyn,-73.94988249,40.6522084,BISMILLAH BROOKLYN LLC,1404,NOSTRAND AVE
NY,10002,New York,Manhattan,-73.99019961,40.72188678,MANHATTAN 1 DELI GRILL AND JUICE BAR COR,59,STANTON ST
NY,11238,Kings,Brooklyn,-73.95912463,40.6801993,GERMANN AMY,999,ATLANTIC AVE
NY,11238,Kings,Brooklyn,-73.95912463,40.6801993,RIRONY LLC,999,ATLANTIC AVE
NY,11204,Kings,Brooklyn,-73.98237385,40.61247604,SUN FAR INC,1407,WEST 8TH STREET
NY,11223,Kings,Brooklyn,-73.97265461,40.60411928,PINEAPPLE MINIMARKET CORP,470,KINGS HWY
NY,11237,Kings,Brooklyn,-73.92120297,40.70246017,ABU ALI DELI & GRILL CORPORATION,1537,DEKLAB AVE
NY,11435,Queens,Queens,-73.79950377,40.693313,SUTPHIN BANGLA BAZAR CORP,107-57,SUTPHIN BLVD
NY,10306,Richmond,Staten Island,-74.12739988,40.56486478,GUYON BAGEL DELI & GROCERY INC,99,GUYON AVENUE
NY,10468,Bronx,Bronx,-73.90854847,40.86262258,ALLYSSIA DISCOUNTS CORP,172,W FORDHAM RD
NY,11223,Kings,Brooklyn,-73.97725921,40.59641204,J & B FRUIT MARKET CORP,182,AVENUE U
NY,10454,Bronx,Bronx,-73.91844683,40.80646983,FOOD STOP DELI CORP,545,E 137TH ST
NY,11103,Queens,Queens,-73.90463278,40.76480338,RAPHAEL DELI CORP,48-19,25TH AVE
NY,11375,Queens,Queens,-73.84996886,40.73401079,A&R INTERNATIONAL MARKET LLC,63-37,108TH STREET
NY,10457,Bronx,Bronx,-73.89431684,40.85099131,CARNICERIA EL TORITO CORP,513,EAST 180TH STREET
NY,11208,Kings,Brooklyn,-73.86871239,40.66829834,LINDEN DELI AND GRILL 2 INC,2602,LINDEN BLVD
NY,11212,Kings,Brooklyn,-73.92284473,40.66516837,ALEX DELI GROCERY 2 INC,2,SUTTER AVE
NY,10466,Bronx,Bronx,-73.8504499,40.89852232,WICKHAM MINI MARKET CORP,4400,WICKHAM AVE  STORE A
NY,11377,Queens,Queens,-73.91851967,40.7355821,GAZA DELI & GRILL CORP,50-60,48TH ST
NY,10029,New York,Manhattan,-73.9364292,40.79566626,LETS EAT FOOD COURT LLC,339,E 115TH ST
NY,10474,Bronx,Bronx,-73.88912883,40.81880912,DREAMS 1 99C CORPORATION,874,HUNTS POINT AVE
NY,11220,Kings,Brooklyn,-74.00436201,40.64074393,DAFU GROCERY INC,5024,"8TH AVENUE, 1 FLOOR"
NY,11201,Kings,Brooklyn,-73.98236681,40.68960703,DOLLAR TREE STORES INC,559,FULTON ST
NY,11229,Kings,Brooklyn,-73.95510483,40.5988614,LUCKY 7 BAGEL AND GRILL CORP,1608,AVENUE U
NY,11104,Queens,Queens,-73.92527808,40.7401196,LOVE DELI & GROCERY INC,39-43,48TH AVE
NY,10040,New York,Manhattan,-73.9296298,40.8631625,SANTOS GOURMET DELI AND GROCERY CORP,4672,BROADWAY
NY,11358,Queens,Queens,-73.78978395,40.76669237,BAYSIDE BAGELS INC,33-31,FRANCIS LEWIS BLVD
NY,11208,Kings,Brooklyn,-73.8751134,40.68115668,HOMEMADE TASTY CREATIONS LLC,276,CHESTNUT ST
NY,10044,New York,Manhattan,-73.9495079,40.7626357,579 BREAD AND BUTTER CORP,579,MAIN STREET
NY,11385,Queens,Queens,-73.90183985,40.70481938,SAM SPOLEM FAMILY INC,66-91,FOREST AVE
NY,11377,Queens,Queens,-73.91263406,40.74437627,JS INTERNATIONAL 5127 CORP,51-27,43RD AVE
NY,10463,Bronx,Bronx,-73.90224738,40.87569814,3001 PLAZA LIBRE FOOD CORP,3001,KINGSBRIDGE TERRACE
NY,11229,Kings,Brooklyn,-73.95405751,40.61036611,K & H GRILL CORP,1918,KINGS HWY
NY,10458,Bronx,Bronx,-73.89183387,40.86036504,FRESH & TASTY SUSHI INC,421,E 189TH STREET
NY,10012,New York,Manhattan,-74.00071773,40.72621029,PARTNERS IN CHOCOLATE LLC,456,W BROADWAY
NY,11226,Kings,Brooklyn,-73.9487402,40.64454994,JBD MINI MARKET CORP,1699,NOSTRAND AVE
NY,10467,Bronx,Bronx,-73.86466955,40.87983306,CHULAMEX LLC,3622,WHITE PLAINS ROAD
NY,11412,Queens,Queens,-73.75325653,40.70700874,27 & 7 DELI GROCERY INC,204-19,HOLLIS AVE
NY,10128,New York,Manhattan,-73.94758233,40.77900065,EAST SIDE CONVENIENCE CORPORATION,1726,1ST AVE
NY,11220,Kings,Brooklyn,-74.0133144,40.6414317,4317 GROCERY INC,809,44THST
NY,11235,Kings,Brooklyn,-73.95646044,40.57806208,FEST PRODUCTION INC,1111A,BRIGHTON BEACH AVE
NY,11420,Queens,Queens,-73.822539,40.67653239,ROYALE SWEETS LLC,115-08,ROCKAWAY BLVD
NY,10003,New York,Manhattan,-73.98934868,40.72600737,LUSCIOUS MARKET DELI CORP,68,2ND AVE
NY,11218,Kings,Brooklyn,-73.97416042,40.63854917,CITYLINE PHARMACY CORP,511,CORTELYOU RD
NY,11211,Kings,Brooklyn,-73.95404285,40.71044297,TORIBIO GROCERY STORE CORP,335,S 2ND ST
NY,10459,Bronx,Bronx,-73.89581743,40.83044508,FREEMAN DELI GROCERY CORP,854,FREEMAN ST
NY,10002,New York,Manhattan,-73.99105993,40.7108883,CHERRY STREET FOOD MARKET LLC,227,CHERRY STREET
NY,10013,New York,Manhattan,-74.00496928,40.72138534,SOHO DELI GROCERY T INC,386,CANAL ST
NY,10032,New York,Manhattan,-73.94044036,40.8347621,MEXICAN CULTURE DELI GROCERY GROUP THE,2017,AMSTERDAM AVE
NY,10459,Bronx,Bronx,-73.89840989,40.81743553,ULISESS BUTCHER SHOP NY INC,956,LONGWOOD AVE
NY,10034,New York,Manhattan,-73.92853638,40.86636879,CHURCH OF JESUS CHRIST OF LATTER-DAY SAI,250,DYCKMAN ST
NY,10455,Bronx,Bronx,-73.91427196,40.81464786,UTC PHARMACY INC,516,E 149TH ST
NY,11238,Kings,Brooklyn,-73.96368254,40.67134965,LEMONS & OLIVES INC,200,EASTERN PARKWAY
NY,11232,Kings,Brooklyn,-73.99953177,40.64533712,LUCKY 4216 GROCERY INC,4216,8TH AVENUE
NY,10032,New York,Manhattan,-73.94517236,40.8332156,NEILAARSHI HEALTH CRE LLC,3750,BROADWAY
NY,11354,Queens,Queens,-73.83307631,40.75870526,YITHE INC,133-35,ROOSEVELT AVE
NY,11354,Queens,Queens,-73.83055109,40.75862865,DEERS GINSENG INC,135-28,40TH RD
NY,10031,New York,Manhattan,-73.94782632,40.83047262,BHOLE PHRAMACY INC,3663,BROADWAY
NY,11216,Kings,Brooklyn,-73.95481432,40.68711856,JURY MARKET 1 CORP,1098,BEDFORD AVE
NY,10065,New York,Manhattan,-73.96102992,40.76122884,ALEXANDERS MINI MART CORP,1121,1ST AVE
NY,11229,Kings,Brooklyn,-73.95946225,40.60813304,YEMZ DELI & FOOD MARKET CORP,1314,KINGS HWY
NY,11373,Queens,Queens,-73.87862977,40.74218473,ASIAN TASTE STORE INC,86-25,WHITNEY AVE
NY,11203,Kings,Brooklyn,-73.93924862,40.65469887,LENOX DELI BITES CORP,787,ALBANY AVE
NY,11228,Kings,Brooklyn,-74.00565265,40.62183066,PYTHONIFIED LLC,7203,13TH AVENUE 1ST FL
NY,10460,Bronx,Bronx,-73.8663119,40.84023381,HONEST KING DELI GROCERY CORP,1587,THIERIOT AVE
NY,10305,Richmond,Staten Island,-74.08683658,40.59457033,ASIAN YANG SUPERMARKET INC,1399,HYLAN BLVD
NY,11212,Kings,Brooklyn,-73.91572213,40.65570181,KING CAPITAL DELI GROCERY CORP,9527,CHURCH AVE
NY,11222,Kings,Brooklyn,-73.9520384,40.73390237,MCGREENLAND DELI AND GRILL CORP,336,MCGUINESS BLVD
NY,10002,New York,Manhattan,-73.98301833,40.71988447,TROUSER FOODS INC,196,STANTON ST
NY,11236,Kings,Brooklyn,-73.90188763,40.64492629,BELLOS AMERICAN CORP,1445,ROCKAWAY PKWY
NY,11428,Queens,Queens,-73.74190761,40.71698974,EXPRESS STAR DELI CORP,21457,JAMAICA AVE
NY,10304,Richmond,Staten Island,-74.07594539,40.63158728,WB SEAFOOD INC,425,BAY STREET
NY,10032,New York,Manhattan,-73.93914561,40.84432053,PERA PRODUCE & MEAT MARKET CORP,4087,BROADWAY
NY,10459,Bronx,Bronx,-73.90014151,40.82493612,WB SEAFOOD INC,1041,PROSPECT AVE
NY,11206,Kings,Brooklyn,-73.93775044,40.6982292,874 MINI MARKET CORP,874,BROADWAY
NY,11226,Kings,Brooklyn,-73.95783993,40.64505947,24K DELI INC,1057,FLATBUSH AVE
NY,11378,Queens,Queens,-73.90426968,40.72204587,61 ST GREEN APPLE DELI CORP,6101,GRAND AVE
NY,11225,Kings,Brooklyn,-73.95649556,40.66626439,ALQADIR DELI & GROCERY INC,1649,BEDFORD AVE
NY,10455,Bronx,Bronx,-73.91645035,40.81266141,10 DAYS GROCERY CORP,459,BROOK AVE
NY,11237,Kings,Brooklyn,-73.9268714,40.70150514,107 WILSON EXPRESS CORP,107,WILSON AVE
NY,10467,Bronx,Bronx,-73.86814032,40.86503267,MOSES BAGELS & MORE CORP,674,ALLERTON AVE
NY,11211,Kings,Brooklyn,-73.95823807,40.70840311,WILLIAMSBURG DELI SERVICE LLC,296,BROADWAY
NY,10026,New York,Manhattan,-73.9498249,40.80138054,LENOX DELI AND CONVENIENCE CORP,100,LENOX AVE
NY,10031,New York,Manhattan,-73.9469018,40.83083958,SANTIAGO DELI 152 CORP,3680,BROADWAY
NY,10016,New York,Manhattan,-73.97357486,40.74765024,ORGANIC DELI & KIMCHI INC,720,2ND AVE
NY,11415,Queens,Queens,-73.82504569,40.70379386,FOUR SEASONS MARKETPLACE CORP THE,85-17,126TH ST
NY,11236,Kings,Brooklyn,-73.89427476,40.6395037,PRINCE CONVENIENCE GROCERY CORP,9801,AVENUE L
NY,10454,Bronx,Bronx,-73.9229081,40.80942675,A & E HEALTHY CHOICE CORP,237,WILLIS AVE
NY,10304,Richmond,Staten Island,-74.07971842,40.62909434,ANOUD DELI CORP,374,VAN DUZER STREET
NY,10465,Bronx,Bronx,-73.82017438,40.82471421,SKYLINER CONVENIENCE CORP,3815,E TREMONT AVE
NY,11223,Kings,Brooklyn,-73.97535358,40.60467748,KINGS HWY DELI & GRILL INCORPORATED,399,KINGS HWY
NY,10461,Bronx,Bronx,-73.84558982,40.84318352,LA TIENDITA DONA FIDE 2 CORP,2589,ST RAYMOND AVENUE
NY,10030,New York,Manhattan,-73.94053222,40.82010592,J U GOURMET DELI INC,2448,ADAM CLAYTON POWELL BLVD
NY,11210,Kings,Brooklyn,-73.94622563,40.63123491,STAR BRITE FLATBUSH INC,1608,FLATBUSH AVE
NY,10456,Bronx,Bronx,-73.90770551,40.82612086,BRONX MINI MART CORP,3324,3RD AVE
NY,11232,Kings,Brooklyn,-73.99919155,40.6452826,LUCKY U CONVENIENCE INC,4211,8TH AVE
NY,11226,Kings,Brooklyn,-73.96073395,40.64971612,GAZA CONVIENCE INC,533,OCEAN AVE
NY,11203,Kings,Brooklyn,-73.93153475,40.65181793,ISLAND GROCERY & DELI LLC,4823,CHURCH AVE
NY,10459,Bronx,Bronx,-73.8874296,40.82679443,SIMREEN PACKING ENTERPRISE INC,1260,WESTCHESTER AVE
NY,11225,Kings,Brooklyn,-73.96035249,40.65889774,SWEET CANDY DELI CORP,597,FLATBUSH AVE
NY,10303,Richmond,Staten Island,-74.15589575,40.62577049,WB SEAFOOD INC,2040,FOREST AVE
NY,11205,Kings,Brooklyn,-73.95704122,40.69830128,BEYOND SAIL INC,744,BEDFORD AVE
NY,10463,Bronx,Bronx,-73.89943123,40.87931183,KIMBERLY DELI GROCERY CORP,3340-44,FORT INDEPENDENCE STREET
NY,11207,Kings,Brooklyn,-73.89265546,40.6803055,FRESH DEPOT MARKET INC,200,JAMAICA AVE
NY,10458,Bronx,Bronx,-73.89367227,40.85995349,M&A DELI GROCERY 1 INC,374,E 188TH ST
NY,11203,Kings,Brooklyn,-73.94318417,40.65572369,KINGS DRUG&SURGICAL CORP,492,CLARKSON AVE
NY,11229,Kings,Brooklyn,-73.93391706,40.60045375,NETO SOLUTIONS INC,2133,KNAPP ST 2ND FLOOR
NY,10013,New York,Manhattan,-74.00077749,40.71794913,LAFAYETTE DELI & CONVENIENCE INC,107B,LAFAYETTE ST
NY,11203,Kings,Brooklyn,-73.92950726,40.65178704,TOP FISH MKT INC,5024,CHURCH AVE
NY,10027,New York,Manhattan,-73.95599114,40.81405758,CALIFORNIA GRILL AND DELI CORP,1348-B,AMSTERDAM AVENUE
NY,11372,Queens,Queens,-73.88298342,40.74978046,NETRA INC,83-10,37TH AVE
NY,11206,Kings,Brooklyn,-73.9336594,40.69835815,FIREHOUSE DELI & GRILL #3 CORPORATION,4,STANWIX ST STORE
NY,11225,Kings,Brooklyn,-73.95000294,40.65721738,JIMMY DELI & CONVENIENCE INC,299,WINTHROP ST
NY,11206,Kings,Brooklyn,-73.94117604,40.69944189,MGB GOURMET DELI INC,15,MARCUS GARVEY BLVD
NY,11412,Queens,Queens,-73.75120389,40.6948787,LINDEN STOP DELI CORP,201-01,LIINDEN BLVD
NY,10459,Bronx,Bronx,-73.90119042,40.82022972,MAX FRESH FOOD DELI CORP,870,PROSPECT AVE
NY,11229,Kings,Brooklyn,-73.95755428,40.60892865,FANCY FARMS NY LLC,1524,KINGS  HWY
NY,11418,Queens,Queens,-73.82993016,40.70033716,HARSH DELI & GRILL INC,120-03,JAMAICA AVE
NY,11367,Queens,Queens,-73.81324255,40.71891737,GDMA BROS INC,149-17A,UNION TPKE
NY,10471,Bronx,Bronx,-73.89883544,40.88962472,BEST DELI & GRILL II CORP,201,W 242ND ST
NY,11412,Queens,Queens,-73.75885414,40.7064241,SANAHY FOOD CORNER CORP,198-21,HOLLIS AVE
NY,10467,Bronx,Bronx,-73.86845951,40.85864575,OLINVILLE DELI PLAZA CORP,2220,OLINVILLE AVE
NY,11207,Kings,Brooklyn,-73.89251984,40.66222813,411 NEW LOTS DELI CORP,411,NEW LOTS AVENUE
NY,10022,New York,Manhattan,-73.96986159,40.76017787,FRIDGES 1 LLC,672,LEXINGTON AVE
NY,10033,New York,Manhattan,-73.93692482,40.8503977,WORLD OF HEALTH CORP THE,720,WEST 181ST ST
NY,10457,Bronx,Bronx,-73.89839464,40.85424889,EL TRIANGULO DELI MARKET INC,2160,TIEBOUT AVENUE
NY,10003,New York,Manhattan,-73.98850085,40.73756077,CHEVALIER JENNIFER,228,PARK AVE S
NY,10310,Richmond,Staten Island,-74.11365323,40.63760247,ELM MINI MART CORPORATION,169,ELM ST
NY,11691,Queens,Queens,-73.7538426,40.60084229,VERY BERRY DELI CORP,601,BEACH 20TH ST
NY,10453,Bronx,Bronx,-73.90553384,40.85557495,HUSSIENS 99 CENTS AND UP INC,2128,JEROME AVENUE FRNT 3
NY,11206,Kings,Brooklyn,-73.94274354,40.70107854,SHINING STARS STORE INC,724,BROADWAY
NY,10456,Bronx,Bronx,-73.90502782,40.82699015,1086 BOSTON RD DELI CORP,1086,BOSTON RD
NY,10451,Bronx,Bronx,-73.9186392,40.81885145,W CANDY CORP,641,COURTLANDT AVE
NY,11223,Kings,Brooklyn,-73.96193323,40.59810439,DAVIDS MINI MARKET INC,902,AVENUE U
NY,11213,Kings,Brooklyn,-73.93365432,40.66920883,JS ORGANIC MARKET CORP,1045,EASTERN PKWY STE A
NY,10459,Bronx,Bronx,-73.89207954,40.83039194,1285 ROYALTY GOURMET DELI & GROC CORP,1285,SOUTHERN BLVD
NY,11373,Queens,Queens,-73.87149711,40.74230376,FRESH BITES CAFE INC,92-24,CORONA AVE
NY,11225,Kings,Brooklyn,-73.96036532,40.65921064,MIDWOOD GROCERY CORP,587,FLATBUSH AVE
NY,10467,Bronx,Bronx,-73.8638902,40.87674228,GUNHILL MEXICAN DELI GROCERY LLC,751,E GUN HILL ROAD STE B
NY,11421,Queens,Queens,-73.8667444,40.69126949,75 CONVENIENT CORP,74-34,JAMAICA AVE
NY,11358,Queens,Queens,-73.80301771,40.77134818,LUCKI MART INC,161-09,29TH AVE
NY,11226,Kings,Brooklyn,-73.95829524,40.64384456,2112 YAFA LLC,2112,CORTELYOU RD
NY,10468,Bronx,Bronx,-73.90338195,40.86289797,53 CHOPPED CHEESE CORP,53,W FORDHAM RD
NY,10471,Bronx,Bronx,-73.90305665,40.90997954,6052 DOLPHINS GOURMET DELI CORP,6052,RIVERDALE AVE
NY,10009,New York,Manhattan,-73.9779514,40.72117954,JAY & M DELI CORP,35,AVE D
NY,10457,Bronx,Bronx,-73.8915773,40.84917403,HALA DELI CORP,2086,ARTHUR AVE
NY,10467,Bronx,Bronx,-73.86216554,40.88435778,826 SNACK & CONVENIENCE STORE INC,3826,WHITE PLAINS RD
NY,11415,Queens,Queens,-73.82626534,40.71223223,ZAK ORGANIC CONVENIENCE CORP,120-78,QUEENS BLVD
NY,10025,New York,Manhattan,-73.96868264,40.79863187,CVS ALBANY LLC,2686,BROADWAY
NY,10472,Bronx,Bronx,-73.86730096,40.83125302,TACO GRANDE DELI CORP,1257,ST LAWRENCE AVE
NY,11355,Queens,Queens,-73.8291866,40.7472376,HUA TING INC,135-28,BOOTH MEMORIAL
NY,10025,New York,Manhattan,-73.96842502,40.79999749,BROADWAY STARS DELI CORP,2721,BROADWAY
NY,11436,Queens,Queens,-73.7900411,40.67317925,A AND M DELI GROCERY CORP I,147-18,ROCKAWAY BLVD
NY,11215,Kings,Brooklyn,-73.98713881,40.66795882,331 EXPRESS DELI GROCERY CORP,331,11TH ST
NY,10457,Bronx,Bronx,-73.90507133,40.8445261,H&S CONVENIENCE CORP,288,EAST 174TH STREET
NY,10452,Bronx,Bronx,-73.91877171,40.83839708,BLACK OLIVE GOURMET INC,1318,JEROME AVE
NY,10469,Bronx,Bronx,-73.86134336,40.8653985,9 STAR DELI AND GROCERY CORP,900,ALLERTON AVE
NY,10456,Bronx,Bronx,-73.91282718,40.83800422,NUEVA ESPERANZA DELI 2 CORP,1374,SHERIDAN AVE
NY,11215,Kings,Brooklyn,-73.98984606,40.6651848,ORGANIC SNACKS 1 & CONVENIENCE INC,566,5TH AVE
NY,10007,New York,Manhattan,-74.00976381,40.71564574,TRIBECA OLIVE BRANCH DELI INC,146,CHAMBERS ST
NY,11368,Queens,Queens,-73.86307657,40.74934678,FRESH FARM SUPERMARKET CORP,40-16,NATIONAL STREET
NY,11372,Queens,Queens,-73.87166986,40.75347654,34-61 DELI CORP,34-61,JUNCTION BLVD
NY,11213,Kings,Brooklyn,-73.93129696,40.66841778,280 SUPER STOP CORP,280,UTICA AVENUE
NY,11237,Kings,Brooklyn,-73.91931268,40.70629946,SUYDAM BEER & MARKET INC,81,ST NICHOLAS AVE
NY,10302,Richmond,Staten Island,-74.1340293,40.63262232,NY DELI & GRILL CORP,341,HEBERTON AVE
NY,10460,Bronx,Bronx,-73.87146819,40.84232262,NAJIM GOURMET DELI INC,526,MORRIS PARK AVE
NY,10029,New York,Manhattan,-73.94736079,40.78821869,101 MINI MARKET CORP,1810,3RD AVE
NY,10451,Bronx,Bronx,-73.92249965,40.81759634,MORRIS MINI MARKET CORP,554,MORRIS AVENUE
NY,10001,New York,Manhattan,-73.99551977,40.74909452,NEW 382 FARMERS DELI INC,382,8TH AVENUE
NY,10453,Bronx,Bronx,-73.90419014,40.85221746,SAM 4 DELI GROCERY INC,2039,GRAND CONCOURSE
NY,11428,Queens,Queens,-73.73566803,40.71852778,TASTY CHOICE DELI & GROCERY CORP,219-15,JAMAICA AVE
NY,10302,Richmond,Staten Island,-74.13590257,40.62487816,LA MILPA DELI & GROCERY LLC,1414,FOREST AVE
NY,10461,Bronx,Bronx,-73.82937821,40.85220648,SKANDERBEG ALBANIAN MARKET LLC,2000,CONTINENTAL AVE
NY,10019,New York,Manhattan,-73.98288187,40.76104854,CENTRAL CAFE & DELI INC,159,W 50TH ST
NY,11416,Queens,Queens,-73.86172842,40.68428519,9402 DELI AND GRILL CORP,94-02,78TH ST
NY,10036,New York,Manhattan,-73.99464948,40.76046303,600 DELI CORP,600,10TH AVE
NY,11368,Queens,Queens,-73.85716313,40.75104772,OUR DREAM DELI GROCERY LLC,108-42,ROOSEVELT AVE
NY,11223,Kings,Brooklyn,-73.96979697,40.60902312,SYLVIAS SWEETS LLC,474,AVENUE P
NY,11368,Queens,Queens,-73.85906826,40.75805549,PAVAN INC,110-21,NORTHERN BLVD
NY,11427,Queens,Queens,-73.75752435,40.71817507,YAHYA PLUS CONVENIENCE STORE CORP,89-58,FRANCIS LEWIS BLVD
NY,10465,Bronx,Bronx,-73.82027102,40.82491387,ONE BEST DELI & MORE CORP,3807,E TREMONT FL 1
NY,10456,Bronx,Bronx,-73.91000942,40.83438194,KPODA CT SERVICES LLC,383,E 169TH ST
NY,10023,New York,Manhattan,-73.98755353,40.77214564,RA 22 PARK PLACE ENTERPRISES INC,211,WEST 61ST STREET
NY,10019,New York,Manhattan,-73.98407914,40.7654008,HYDRA HOSPITALITY 2 LLC,927,8TH AVENUE
NY,10012,New York,Manhattan,-74.00037583,40.73066163,WEST 3RD NYC DELI INC,121,W 3RD ST
NY,10304,Richmond,Staten Island,-74.08432822,40.61562118,OMW THE HIGH STATION DELI CORP,425,VANDERBILT AVE
NY,11420,Queens,Queens,-73.8212709,40.68068118,NUNEZ GROCERY AND DELI INC,109-59,LEFFERTS BLVD
NY,11372,Queens,Queens,-73.87834077,40.74809452,PLACITA 88 CORP,88-04,ROOSEVELT AVE
NY,10472,Bronx,Bronx,-73.88031621,40.82884456,WHEELER DELI GROCERY CORPORATION,1209,WHEELER AVE
NY,11225,Kings,Brooklyn,-73.95406766,40.66461831,356 EXPRESS SULLIVAN FOOD CORP,209,SULLIVAN PL
NY,11432,Queens,Queens,-73.79795798,40.70633152,GREEN FOOD MART INC,89-20,163RD STREET
NY,10305,Richmond,Staten Island,-74.08106874,40.5984646,ON THE GO GROCERIES INC,1150,HYLAN BLVD
NY,10039,New York,Manhattan,-73.93759277,40.82907406,STEVE DELI FOOD CORPORATION,2923,FREDERICK DOUGLAS BLVD
NY,10002,New York,Manhattan,-73.9918205,40.71824086,116 CONVENIENCE INC,116,ELDRIDGE ST
NY,11354,Queens,Queens,-73.84644813,40.77476243,PATRON DELI INC,25-75,COLLEGE POINT BLVD
NY,11234,Kings,Brooklyn,-73.92427963,40.60836396,U FARMER DELI CORP,4010,AVENUE U
NY,11236,Kings,Brooklyn,-73.89741027,40.64851206,F & N BRUKELEN DELI CORP,10319,GLENWOOD RD
NY,11222,Kings,Brooklyn,-73.95548705,40.73668591,AMERICAN EXPRESS DELI CORP,1115,MANHATTAN AVE
NY,11223,Kings,Brooklyn,-73.9627643,40.59826762,SKS INVESTORS NY LLC,807,AVENUE U
NY,10456,Bronx,Bronx,-73.90296579,40.82252209,BRONX FAMOUS DELI CORP,782,E 163RD ST
NY,10018,New York,Manhattan,-73.98427084,40.75071206,ROLLGOOD,16,W 37TH STREET
NY,10468,Bronx,Bronx,-73.89553004,40.86685016,ALS FRUIT & VEGETABLES CORP,75,EAST KINGSBRIDGE RD
NY,11432,Queens,Queens,-73.80058395,40.70338009,ABU KHALIL DELI & GRILL CORP,155-27,JAMAICA AVE
NY,11423,Queens,Queens,-73.75633051,40.71366091,PUERTO PLATA DELI GROCERY INC,202-19,JAMAICA AVE
NY,11226,Kings,Brooklyn,-73.96175286,40.64979948,NEW L&C FISH MARKET INC,1910,CHURCH AVE
NY,10453,Bronx,Bronx,-73.91525911,40.84706074,174TH GRAND FOODMART CORP,1645,GRAND AVE
NY,10301,Richmond,Staten Island,-74.10308071,40.61647618,EL NILE MARKET INC,1172,VICTORY BLVD STORE A1
NY,10040,New York,Manhattan,-73.92622482,40.86123224,MI LUPITA GROCERY CORP,132,NAGLE AVE
NY,10301,Richmond,Staten Island,-74.07849273,40.63820148,FRUTAS Y ABARROTES HM LLC,54-A,VICTORY BLVD
NY,10021,New York,Manhattan,-73.95811687,40.76946364,1399 FINEST CAFE GROUP CORP,1399,2ND AVE
NY,11368,Queens,Queens,-73.85560343,40.75152502,QWC GROUP INC,111-02,ROOSEVELT AVE
NY,10034,New York,Manhattan,-73.92055002,40.86694987,U & G CORP,581,W 207TH ST
NY,11230,Kings,Brooklyn,-73.95564555,40.61838063,JAM RX LLC,1914,AVENUE M
NY,11212,Kings,Brooklyn,-73.90843129,40.65624512,HEGEMAN CONVENIENCE CORP,622,CHESTER STREET
NY,10473,Bronx,Bronx,-73.84837898,40.82139133,TOP HELL MINI MART MARKET CORP,708,CASTLE HILL AVE
NY,11237,Kings,Brooklyn,-73.92135158,40.70065639,ONE STOP FAMILY MART INC,365,KNICKERBOCKER AVE
NY,10034,New York,Manhattan,-73.92368887,40.8646093,CAPA DELI & GROCERY LLC,144,SHERMAN AVE
NY,11385,Queens,Queens,-73.89165609,40.70093697,SAMS GLENDALE SMOKE N CONVENIENCE CORP,64-20,MYRTLE AVE
NY,10307,Richmond,Staten Island,-74.24193281,40.51075067,SOUTH SHORE DELI & CONVENIENCE 1 CORP,7344,AMBOY RD
NY,10305,Richmond,Staten Island,-74.07931592,40.59880411,ALJAZEERA HALAL MEAT MARKET CORP,1095-1101,HYLAN BLVD
NY,11206,Kings,Brooklyn,-73.93745992,40.69436271,CLASSIC DELI & ORGANIC CORP,86,LEWIS AVE
NY,10001,New York,Manhattan,-74.00035328,40.74769018,GOURMET SQUARE ORGANIC MARKET INC,248,9TH AVE
NY,11233,Kings,Brooklyn,-73.93248937,40.68443451,BROOKLYN HEIGHTS DELI CORP,302,STUYVESANT AVE
NY,11226,Kings,Brooklyn,-73.9614693,40.6501159,OCEAN DELI & GRILL CORP 1,1925,CHURCH AVE
NY,10454,Bronx,Bronx,-73.92494172,40.81211487,3RD AVE BLUE STAR CORP,2614,3RD AVE
NY,11213,Kings,Brooklyn,-73.94167359,40.67102246,HARRY COFFEE GROCERY SHOP CORP,1102,SAINT JOHNS PL
NY,10002,New York,Manhattan,-73.98299905,40.71957631,RIDGE MINI MARKET AND DELI 1 CORP,129,RIDGE ST
NY,11385,Queens,Queens,-73.89897391,40.69965261,FOREST DELI AND CONVENIENCE CORPORATION,7220,FOREST AVE
NY,10467,Bronx,Bronx,-73.86507875,40.87156188,TOP DELI & MORE CORP,743,BURKE AVE
NY,11224,Kings,Brooklyn,-73.99193886,40.57597021,N & M S BROOKLYN DELI INC,2423,MERMAID AVE
NY,11213,Kings,Brooklyn,-73.92773683,40.67209379,KANZ DELI CORP,1492,PARK PL
NY,10119,New York,Manhattan,-73.99159528,40.75094625,DUANE READE INC,1,PENN PLAZA
NY,11223,Kings,Brooklyn,-73.98379961,40.58796065,HABIBIS DELI & GRILL INC,2436,STILLWELL AVE
NY,11379,Queens,Queens,-73.87851687,40.71292162,74TH ST GOURMET CORP,73-21,METROPOLITAN AVE
NY,11368,Queens,Queens,-73.86289686,40.74697939,BIANCAS DELI CORP,43-06,102ND ST
NY,11215,Kings,Brooklyn,-73.98341429,40.67725457,230 DELI & GRILL I LLC,230,4TH AVE
NY,10308,Richmond,Staten Island,-74.16465853,40.55953137,BAGEL BOX 2 INC THE,700,ARTHUR KILL RD
NY,10075,New York,Manhattan,-73.95509871,40.77436043,LA PETITE EPICERIE NYC LLC,239,EAST 80TH STREET
NY,10467,Bronx,Bronx,-73.8650075,40.86533497,SOCOTRA MEAT MARKET LLC,762,ALLERTON AVE
NY,10452,Bronx,Bronx,-73.92867109,40.83434015,MAX DEALS OGDEN INC,1049,OGDEN AVE
NY,11226,Kings,Brooklyn,-73.95782417,40.64478555,SAL CONVENIENT CORP,1067,FLATBUSH AVE
NY,10454,Bronx,Bronx,-73.92342442,40.81286295,MOODY GROCERY CORP,2660,3RD AVE
NY,10451,Bronx,Bronx,-73.92201618,40.8186621,MORRO DELI GROCERY CORP,602,MORRIS AVE #3
NY,11214,Kings,Brooklyn,-73.99404003,40.59611775,BAY 35 ST GROCERY INC,180,BAY 35TH ST
NY,10454,Bronx,Bronx,-73.91775382,40.8061708,DELI GROCERY 137A CORP,575,E 137TH ST
NY,11204,Kings,Brooklyn,-73.98806717,40.62143621,NO7 GROCERY INC,6102,18TH AVENUE
NY,11220,Kings,Brooklyn,-74.00177611,40.64318557,BEIBEI MARKET INC,4612,8TH AVENUE
NY,11372,Queens,Queens,-73.87381102,40.75097911,93 CANDY CITY STORE INC,93-05,37TH AVE UNIT CO 1D
NY,11209,Kings,Brooklyn,-74.02965817,40.62648949,SAL CANDY & LOTTO CORP,8123,3RD AVE
NY,11220,Kings,Brooklyn,-74.00751428,40.63766969,KUAN SING GROCERY INC,5606,8TH AVENUE
NY,11219,Kings,Brooklyn,-73.99786469,40.62118052,BARAKA HALAL MEATS INC,1537,"68TH ST, APT 4B"
NY,10305,Richmond,Staten Island,-74.07283998,40.59240884,SOUTH BEACH DELI CORP,125,OLYMPIA BLVD
NY,10467,Bronx,Bronx,-73.8663497,40.87128788,GLOBAL FRUIT MARKET CORP,722,BURKE AVE
NY,11361,Queens,Queens,-73.76730008,40.76080237,CAFENORTH FOOD CORP,215-05,NORTHERN BLVD STE 3
NY,11416,Queens,Queens,-73.86210569,40.67982048,DESHI BAZAR SUPERMARKET INC,75-05,101ST AVE
NY,11373,Queens,Queens,-73.88827558,40.74363401,RONY TRADERS INC,76-15,WOODSIDE AVENUE
NY,11433,Queens,Queens,-73.78416329,40.69685955,109 STOP 1 DELI INC,109-14,MERRICK BLVD
NY,11372,Queens,Queens,-73.87933821,40.74799842,FYZ NY INC,86-20,ROOSEVELT AVE.
NY,11215,Kings,Brooklyn,-73.9808382,40.66757042,305 GOOD DELI & GROCERY CORP,305,7TH AVE
NY,10003,New York,Manhattan,-73.98915372,40.73090529,HEALTHY CHOICE 48 CORP,48,3RD AVE
NY,10022,New York,Manhattan,-73.96603098,40.75861058,BHAKTI 1061 INC,1061,2ND AVE
NY,10305,Richmond,Staten Island,-74.06327388,40.59564296,OCEAN AVE DELI OF STATEN ISLAND INC,112,OCEAN AVE
NY,10466,Bronx,Bronx,-73.85195562,40.89151266,JP BXWOOD GROCERY CORP,884,E 233RD STREET
NY,11222,Kings,Brooklyn,-73.94489852,40.72312244,GREEN VALLEY MART CORP,162,DRIGGS AVE
NY,10033,New York,Manhattan,-73.93708056,40.84916766,GREEN LAND GROCERY CORP,4225,BROADWAY
NY,10467,Bronx,Bronx,-73.86177511,40.8789372,EIGHT BROTHERS DELI & GROCERY CORP,788,EAST 214TH STREET
NY,10034,New York,Manhattan,-73.91991484,40.86540667,D CHICHI DELI GROCERY CORP,534,W 207TH ST
NY,10455,Bronx,Bronx,-73.9079433,40.81130916,WALES AVE GROCERY CORP,481,WALES AVE
NY,11237,Kings,Brooklyn,-73.91886961,40.69897837,452 GOURMET DELI AND GRILL CORP,452,KNICKERBOCKER AVE
NY,10452,Bronx,Bronx,-73.92390772,40.84255337,LA MIA DELI INC,1398,OGDEN AVENUE
NY,10032,New York,Manhattan,-73.93872735,40.83770092,2236 LA UNION DELI GROCERY CORP,2108,AMSTERDAM AVE
NY,11239,Kings,Brooklyn,-73.88384986,40.64680941,J SUSHI TIME,1380,PENNSYLVANIA AVE
NY,11356,Queens,Queens,-73.84155134,40.78160172,20TH AVE DELI & CONVENIENCE INC,126-20,20TH AVE
NY,11208,Kings,Brooklyn,-73.87136048,40.67407813,LA FLOTA DELI BK CORP,1018,BELMONT AVENUE
NY,11354,Queens,Queens,-73.8310385,40.76809001,137TH GOURMET INC,31-52,137TH STREET
NY,10025,New York,Manhattan,-73.96976956,40.79541569,DUKE DELI & MARKET PLACE INC,200,W 98TH ST
NY,10467,Bronx,Bronx,-73.86218951,40.88431717,MONTER SEAFOOD CORP,3824,WHITE PLAINS RD
NY,11230,Kings,Brooklyn,-73.9653419,40.62457352,AVENUE J JUICE BAR DELI CORP,1348,CONEY ISLAND AVE
NY,11385,Queens,Queens,-73.8812119,40.70444832,7020 EMPRESARIO JOVEN CORP,70-20,CENTRAL AVENUE
NY,10458,Bronx,Bronx,-73.89106977,40.85518373,DELY GROCERY METRO LOS REYES INC,531,E 184TH ST
NY,10461,Bronx,Bronx,-73.85667631,40.85303855,NEILL GOURMET DELI 2 INC,1074,NEILL AVE
NY,10459,Bronx,Bronx,-73.88981928,40.82557038,MARCS DELI & GROCERY CORP,1126,WESTCHESTER AVE
NY,11420,Queens,Queens,-73.8205985,40.67620767,APNA SOHNA BAZAAR QUEENS INC,117-10,ROCKAWAY BLVD
NY,11234,Kings,Brooklyn,-73.9383111,40.62423472,BOTTLES OF SUNNAH NYC INC,1871,FLATBUSH AVE. STORE 1
NY,11372,Queens,Queens,-73.88584584,40.75567344,VARGAS ABRAHAM,81-11,NORTHERN BLVD
NY,11368,Queens,Queens,-73.86424031,40.74332673,TEXIS GROCERY INC,98-11,ALSTYNE AVE
NY,10472,Bronx,Bronx,-73.86908237,40.82961934,GT HARDWARE & CONVENIENCE CORP,1735,GLEASON AVENUE
NY,11370,Queens,Queens,-73.88761576,40.7592049,SINAPPLE ENTERPRISE INC,80-05,31ST AVE
NY,11375,Queens,Queens,-73.84950015,40.7332345,E&S CUSTOM KOSHER MEAT MARKET INC,63-71,108TH ST.
NY,10459,Bronx,Bronx,-73.88732726,40.82722338,WESTCHESTER AMIGO 99 INC,1255,WESTCHESTER AVE
NY,11223,Kings,Brooklyn,-73.96266623,40.60696423,NOSTRAND A&R PHARMACY INC,936,KINGS HWY
NY,11224,Kings,Brooklyn,-73.98565247,40.5752582,LONE STAR GOURMET MARKET INC,1901,SURF AVE.
NY,11233,Kings,Brooklyn,-73.91068578,40.6783987,2059 FULTON DELI CORP,2059,FULTON ST
NY,10457,Bronx,Bronx,-73.89546256,40.84665912,STAR ONE DELI GROCERY 1 CORP,541,E TREMONT AVE
NY,11233,Kings,Brooklyn,-73.90614002,40.67460786,GRACE AFRICAN CARIBBEAN AMERICAN MARKET,2447,DEAN STREET
NY,11385,Queens,Queens,-73.90573727,40.71252244,MUSE GARDENS LLC,58-02,METROPALITAN AVE
NY,11691,Queens,Queens,-73.78371277,40.59248684,FREEWAY SUPERMARKET AND DELI CORP,53-07,ROCKWAY BEACH BLVD
NY,11208,Kings,Brooklyn,-73.8788824,40.68163709,LOS TORREZ DELI CORP,3142,FULTON ST
NY,11233,Kings,Brooklyn,-73.92262202,40.67113469,AL GROCERY AND DELI CORP,1691,STERLING PLACE
NY,11368,Queens,Queens,-73.86218289,40.75055298,CUNA DE AZUCAR INC,39-12,104TH ST
NY,10033,New York,Manhattan,-73.93192434,40.84956634,WA STOP CONVENIENCE INC,344,AUDUBON AVE
NY,10310,Richmond,Staten Island,-74.11089415,40.63483221,CASTLETON FARM TO BAGEL LLC,857,CASTLETON AVE
NY,11233,Kings,Brooklyn,-73.92180747,40.67024462,VALDEZ AND DELI GROCERY INC,1661-A,SAINT JOHNS PLACE
NY,11205,Kings,Brooklyn,-73.95418584,40.69095249,ORGANIC FRESH DELI & JUICE BAR INC,554,DEKALB AVE
NY,10459,Bronx,Bronx,-73.89875422,40.81887073,NOVAX DELI CORPORATION,831,DAWSON ST
NY,10456,Bronx,Bronx,-73.91888126,40.83151822,NSR DELI GROCERY CORP,182-B,E 166 STREET
NY,11226,Kings,Brooklyn,-73.95313207,40.65537047,PROSPECT GARDEN DELI CORP,660,ROGERS AVE
NY,11203,Kings,Brooklyn,-73.92732478,40.65221615,ALEX FISH MARKET CORP,5302,CHURCH AVE
NY,11421,Queens,Queens,-73.86717146,40.69121283,KATTYS DELICATESSEN CORP,74-22,JAMAICA AVE
NY,10009,New York,Manhattan,-73.97579908,40.72425195,RIVERSIDE DELI 1 MART CORP,129,AVENUE D
NY,11213,Kings,Brooklyn,-73.93056866,40.67314082,MY DELI FOOD CENTER CORP,167,UTICA AVENUE
NY,11372,Queens,Queens,-73.88294731,40.7498898,SHAHBAZ DELI INC,74-03,37TH AVE
NY,10022,New York,Manhattan,-73.96549077,40.75862043,FARMER & DELICIOUS INC,301,E 56TH ST
NY,10031,New York,Manhattan,-73.9526279,40.81876339,1514 GOURMET DELI & MORE CORP,1514,AMSTERDAM AVE
NY,10455,Bronx,Bronx,-73.90517685,40.81258958,E149 DISCOUNT STORE CORP,833,E 149TH ST
NY,10029,New York,Manhattan,-73.9375217,40.7934236,1ST AVE CORNER STORE DELI GROC CO,2165,1ST AVE
NY,11435,Queens,Queens,-73.80824702,40.70633458,KABA FOOD MARKET INC,148-19,HILLSIDE AVE
NY,10003,New York,Manhattan,-73.99399896,40.7311557,8TH ST MARKET CORP,44,E 8TH STREET
NY,11361,Queens,Queens,-73.76827053,40.75867781,SATKAIVAL QUICKSTOP INC,45-61,BELL BLVD
NY,11215,Kings,Brooklyn,-73.99229534,40.6626336,TOWN MARKET & GRILL CORP,650,5TH AVENUE
NY,11366,Queens,Queens,-73.79278467,40.72564489,QUEENS KOSHER SUPERMARKET LLC,176-19,UNION TURNPIKE
NY,10460,Bronx,Bronx,-73.86498387,40.83782891,ALAND GOURMET DELI 2 INC,1851,ARCHER ST
NY,11367,Queens,Queens,-73.81399725,40.72812728,NATURAL FOODS TRADING NY INC,72-15,KISSENA BLVD
NY,11385,Queens,Queens,-73.92074372,40.68944257,TORTILLAS DON PEDRO CORP,16-83,PALMETTO ST.
NY,10310,Richmond,Staten Island,-74.12052412,40.63418659,LOS SISO GROCERY CORP,1138,CASTLETON AVE
NY,11368,Queens,Queens,-73.86128016,40.74934581,LINDO BEBE 88 INC,40-13,104TH STREET
NY,10310,Richmond,Staten Island,-74.1162118,40.63707093,WB MINI MART & GRILL CORP,718,HENDERSON AV
NY,11233,Kings,Brooklyn,-73.92876143,40.68072414,MALCOLMX GROUP INC,354,MALCOLM X BLVD
NY,11432,Queens,Queens,-73.80124436,40.7127407,CROWN DELI 2 CORPORATION,84-45,164TH ST
NY,10033,New York,Manhattan,-73.93494099,40.84712495,CALL SANTO DOMINGO GROCERY CORP,598,W 178TH ST
NY,11229,Kings,Brooklyn,-73.95533802,40.59500597,GRAVESEND DELI & GRILL INC,1507,GRAVESEND NECK RD
NY,10455,Bronx,Bronx,-73.89661616,40.81618579,FIRST HEALTH FRESH GOURMET INC,795,SOUTHERN BLVD
NY,10009,New York,Manhattan,-73.98315563,40.72221791,SZE SUPPLIES LLC,21,AVENUE B
NY,10309,Richmond,Staten Island,-74.23870234,40.52400145,NORTH SHORE CONVENIENCE CORP,4852,ARTHUR KILL RD
NY,11237,Kings,Brooklyn,-73.91076884,40.69923892,WYCKOFF ORGANIC SHOP AND GROCERY CORP,300,WYCKOFF AVENUE
NY,10458,Bronx,Bronx,-73.89427715,40.86307671,290 FAMILY DISCOUNT 99CENTS PLUS LLC,290,E KINGSBRIDGE ROAD
NY,11358,Queens,Queens,-73.80383883,40.76091568,CHOI AE KYEONG KR INC,4105,162 ST BSMT
NY,11356,Queens,Queens,-73.84565503,40.78485365,NEW FUZHOU NOODLES INC,1417,COLLEGE POINT BLVD
NY,11368,Queens,Queens,-73.86072745,40.74769399,ZAV GROCERY CORP,102-60,43RD AVE
NY,10459,Bronx,Bronx,-73.89144084,40.82301729,NEW HOPE GROCERY INC,944,ALDUS ST
NY,11220,Kings,Brooklyn,-74.00969055,40.63938962,TIAN YUAN VEG INC,673,56TH STREET
NY,11219,Kings,Brooklyn,-74.00343556,40.63428931,YOUJIAXING GROCERY INC,5701,FORT HAMILTON PKWY STORE 1
NY,11205,Kings,Brooklyn,-73.96149352,40.69815409,LEE AVE FISH CO INC,338,FLUSHING AVE
NY,10472,Bronx,Bronx,-73.87800256,40.82821089,LINO DELI GROCERY CORP,1160,BOYNTON AVE
NY,11368,Queens,Queens,-73.86367051,40.74662463,4307 W & M DELI GROCERY CORP,43-07,NATIONAL STREET
NY,11373,Queens,Queens,-73.87488264,40.73529829,LUS LICENSING LLC,88-01,QUEENS BLVD
NY,11223,Kings,Brooklyn,-73.971529,40.60884018,SHLOMS HEIMISH CORPORATION,430,AVENUE P
NY,10010,New York,Manhattan,-73.97995298,40.73884714,432 EMPIRE GOURMET DELI GROCERY CORP,432,2ND AVE
NY,11213,Kings,Brooklyn,-73.9254023,40.66890746,291 BUFFALO GRILL DELI CORP,291,BUFFALO AVE
NY,10467,Bronx,Bronx,-73.8661834,40.87850072,C&S AFRICAN-CARIBBEAN SUPERMARKET LLC,3535,WHITE PLAINS RD
NY,10468,Bronx,Bronx,-73.89875833,40.86136538,CHARLIES DELI & GRILL CORP,2434,CRESTON AVE
NY,11229,Kings,Brooklyn,-73.95431903,40.61027411,EAST 19 DELI AND JUICE BAR INC,1910,KINGS HWY
NY,10453,Bronx,Bronx,-73.91737344,40.85197467,JASON DELI & GROCERY CORP,218,W TREMONT AVE
NY,10460,Bronx,Bronx,-73.88333093,40.84528675,EL SABOR DELI GROCERY CORP,860,E 180TH STREET
NY,10002,New York,Manhattan,-73.99314962,40.72029003,GRAND LIBERTY CONVENIENCE INC,14,DELANCEY ST
NY,11434,Queens,Queens,-73.77930514,40.69149715,ABU MUSA DELI & GRILL CORP,114-02,MERRICK BLVD
NY,10457,Bronx,Bronx,-73.89858725,40.85210057,ACEMAK DELI & GROCERY INC,363,E 180TH STREET
NY,11226,Kings,Brooklyn,-73.96513261,40.64073211,BROOKLYNS FINEST DELI & GRILL CORP,1402,CORTELYOU RD
NY,10472,Bronx,Bronx,-73.87800817,40.83387018,PAYA GOURMET DELI CORP,1570,E 174TH ST
NY,11385,Queens,Queens,-73.89028212,40.70109593,DOLGEN NEW YORK LLC,71-24,MYRTLE AVE
NY,10459,Bronx,Bronx,-73.90177397,40.81983049,AA DELI & GRILL INC,839C,PROSPECT AVE
NY,11212,Kings,Brooklyn,-73.92341763,40.65633913,REMSEN FOOD CORP,967,LENOX RD
NY,11416,Queens,Queens,-73.84029321,40.68903932,IBB CONVENIENCE INC,95-01,104TH ST
NY,11235,Kings,Brooklyn,-73.96063102,40.58195242,GOURMET FLAMING GRILL & JUICE BAR CORP,193,NEPTUNE AVE
NY,11207,Kings,Brooklyn,-73.90589937,40.68231452,ABERDEEN ORGANIC DELI INC,1526,BUSHWICK AVENUE
NY,11373,Queens,Queens,-73.88355816,40.73737059,51ST J DELI & GROCERY CORP,80-06,51ST AVE
NY,11375,Queens,Queens,-73.83306768,40.71617774,MAMMA ANNA LUISA LLC,116-09,QUEENS BLVD
NY,11367,Queens,Queens,-73.81458776,40.73847226,FLUSHING EXPRESSWAY INC,154-02,HORACE HARDING EXPRESSWAY
NY,11206,Kings,Brooklyn,-73.93327207,40.70072264,54 NOLL LLC,54,NOLL STREET
NY,11215,Kings,Brooklyn,-73.98534582,40.67055517,402 NEW WAY GOURMET DELI CORP,402,5TH AVENUE
NY,10462,Bronx,Bronx,-73.852021,40.84061393,ALCANTARA 05 DELI GROCERY CORP,1736,ZEREGA AVE
NY,11416,Queens,Queens,-73.85349538,40.68201352,BJ GROCERY AND DELI CORP,86-02,101ST AVE
NY,11226,Kings,Brooklyn,-73.94980621,40.65157821,CAROLS FARM LLC,1424,NOSTRAND AVE
NY,10040,New York,Manhattan,-73.93064862,40.85385901,UPTOWN CHOPCHEESE DELI CORP,1561,SAINT NICHOLAS AVE
NY,11203,Kings,Brooklyn,-73.93441855,40.65144108,ADAM CONVENIENCE AND DELI CORP,4524,CHURCH AVE
NY,10031,New York,Manhattan,-73.95144814,40.8246319,LEAH MINI MARKET CORP,3484,BROADWAY
NY,10453,Bronx,Bronx,-73.91143949,40.84886673,1850 FOOD CORP,1850,JEROME AVENUE
NY,10009,New York,Manhattan,-73.98156541,40.72901266,NYC GRILL & DELI CORP,191,AVENUE A
NY,10027,New York,Manhattan,-73.9480689,40.81394024,273 CONVENIENCE CORP,273,W 131STREET  STORE #2
NY,10007,New York,Manhattan,-74.01185225,40.71179065,RCH USA HOLDING LLC,185,GREENWICH STREET
NY,10029,New York,Manhattan,-73.94705904,40.78459457,96 DELI & GRILL CORPORATION,1869,2ND AVE
NY,10457,Bronx,Bronx,-73.91043356,40.84040509,ORLANDINA DELI GROCERY CORP,261,EAST 172ND STREET
NY,11223,Kings,Brooklyn,-73.97305719,40.59688407,AVE U DELI AND CONVENIENCE INC,2271,MCDONALD AVE
NY,11101,Queens,Queens,-73.95769946,40.74568356,ICHIBAN NY SUSHI LLC,Apr-85,47TH RD
NY,11222,Kings,Brooklyn,-73.94114829,40.72350185,RJJ DELI GROCERY CORP,194,KINGSLAND AVENUE
NY,11212,Kings,Brooklyn,-73.90839695,40.66255019,250 SALAD BAR CORP,248,LIVONIA AVE
NY,10003,New York,Manhattan,-73.98185484,40.73265891,STUYTOWN MARKETPLACE INC,279,1ST AVE
NY,11209,Kings,Brooklyn,-74.02119145,40.63343109,GOURMET DELI GRILL HOT FOOD INC,6902,5TH AVE
NY,10028,New York,Manhattan,-73.95253142,40.77710739,CAROLINES DONUTS 2ND AVE LLC,1631,2ND AVENUE
NY,11234,Kings,Brooklyn,-73.92247211,40.63314188,56 DELI AND GRILL INC,5604,AVE H
NY,11221,Kings,Brooklyn,-73.93156602,40.69475322,BISCUIT DELI 2 INC,1064,BROADWAY
NY,11412,Queens,Queens,-73.75551797,40.69368532,196 LINDEN GROCERY CORP,196-19B,LINDEN BLVD
NY,11385,Queens,Queens,-73.89518261,40.70543923,BRIANA DELI INC,62-04,68TH AVE
NY,11691,Queens,Queens,-73.75459345,40.60617532,SNA DELI & GROCERY CORP,13-36,BEACH CHANNEL DR
NY,10452,Bronx,Bronx,-73.92142869,40.84068425,JB 170 DELI CORP,1346,EDWARD L GRANT HWY
NY,10034,New York,Manhattan,-73.92231868,40.86267816,224 NAGLE GROCERY CORP,224,NAGLE AVE
NY,11226,Kings,Brooklyn,-73.95282923,40.65053445,GREENZ GOURMET LLC,2602,CHURCH AVENUE
NY,10456,Bronx,Bronx,-73.908165,40.83527373,ECG DELI INC,1349,WEBSTER AVENUE
NY,11207,Kings,Brooklyn,-73.89758109,40.66253457,ZM DELI GROCERY STORE CORPORATION,510,RIVERDALE AVE
NY,11422,Queens,Queens,-73.74034438,40.65925431,TRIPLE STAR DELI INC,14520,243 RD ST
NY,11207,Kings,Brooklyn,-73.88043306,40.66268046,LINDEN BITES INC,2228 A,LINDEN BLVD
NY,11354,Queens,Queens,-73.82510336,40.76431434,SHAN HALAL MEAT & GROCERY INC,141-20,NORTHERN BLVD
NY,11378,Queens,Queens,-73.91309197,40.72224716,FRESH FIRST INC,57-45,RUST ST
NY,10453,Bronx,Bronx,-73.90319923,40.85843691,ANGELS & SON FISH MARKET LLC,12,E 183RD STREET
NY,10003,New York,Manhattan,-73.98545931,40.73597136,5 SENSES DELI,206,3RD AVE
NY,10002,New York,Manhattan,-73.99335003,40.71673761,CHOPCHEESE DELI 5 CORP,119,HESTER STREET SPACE D
NY,11234,Kings,Brooklyn,-73.9263679,40.61033442,SGL DELI CORP,4013,AVENUE T
NY,11226,Kings,Brooklyn,-73.9531951,40.65597271,DORIS MARKET CORP,636,ROGERS AVE
NY,11436,Queens,Queens,-73.78863211,40.67280315,BOLLA OPERATING CORP,149-20,ROCKAWAY BLVD
NY,10040,New York,Manhattan,-73.92792626,40.86459426,5B DELI & GROCERY CORP,100,THAYER ST.
NY,11375,Queens,Queens,-73.85027237,40.73246923,DOMEE SUSHI INC,105-35,64TH RD
NY,11385,Queens,Queens,-73.89703166,40.70636467,ROXANA GOURMET INC,66-78,FRESH POND RD
NY,10457,Bronx,Bronx,-73.89323926,40.84810303,MURAD 1 DELI GROCERY CORP,2026,LAFONTAINE AVENUE
NY,11355,Queens,Queens,-73.82938903,40.75762286,BO LUO INC,4120,MAIN STREET B1
NY,10458,Bronx,Bronx,-73.89435154,40.86271965,MI VIEJA DELI GROCERY & MORE CORP,314,EAST KINGSBRIDGE ROAD
NY,11423,Queens,Queens,-73.77952802,40.7133732,CEYLON EXPRESS INC,88-01,182ND PLACE
NY,10032,New York,Manhattan,-73.94244305,40.83695141,DWENDY DELI GROCERY CORP,3872,BROADWAY
NY,11230,Kings,Brooklyn,-73.96391086,40.63414783,AKTER SEREN,631,RUGBY RD
NY,11433,Queens,Queens,-73.7964463,40.70358117,2023 GOURMET DELI & GRILL CORP,92-36A,GUY R BREWER BLVD
NY,11413,Queens,Queens,-73.75339798,40.66548849,BIG LOU 3 GROCERY AND DELI CORP,223-16,S. CONDUIT AVE
NY,11366,Queens,Queens,-73.80405422,40.72191553,UNION TPK PETROLEUM LLC,164-05,UNION TPKE
NY,11234,Kings,Brooklyn,-73.94034053,40.61252637,RUBYS BAGELS CORP,3103,QUENTIN RD
NY,11385,Queens,Queens,-73.89684097,40.70072273,LP BABY & GROCERY INC,60-39,MYRTLE AVENUE
NY,11385,Queens,Queens,-73.8957053,40.70348788,DUKES CONVENIENCE INC,68-74,FRESH POND ROAD
NY,11421,Queens,Queens,-73.85988675,40.69256458,LUCKY FARMERS MARKET INC,84-31,JAMAICA AVENUE
NY,10001,New York,Manhattan,-74.0037684,40.75303201,HAMPTONS MARKETPLACE INC,312,11TH AVE
NY,11236,Kings,Brooklyn,-73.89661046,40.64902734,CANARSIE FOOD SUPERMARKET CORPORATION,10421,GLENWOOD ROAD
NY,10302,Richmond,Staten Island,-74.13758616,40.6324989,SAM DELI & CONVENIENCE CORP,392,PORT RICHMOND AVE
NY,11434,Queens,Queens,-73.79200951,40.68069375,OB DELI INC,116-69,SUTPHIN BLVD
NY,11230,Kings,Brooklyn,-73.97375172,40.61381849,MR GREEN JUICE & GRILL INC,1601,MCDONALD AVE
NY,11230,Kings,Brooklyn,-73.95478666,40.61828545,OCEAN FINEST GRILL BASKET INC,1789,OCEAN AVE
NY,10029,New York,Manhattan,-73.9416248,40.79839022,DIAMOND MINI MARKET CORP,1869 B,LEXINGTON AVENUE
NY,11355,Queens,Queens,-73.82166938,40.75659176,JY&Y GROCERY INC,42-18,BOWNE ST RM A UNIT 1C
NY,11385,Queens,Queens,-73.90785638,40.6998332,FRIENDLY MARKET 168 INC,55-16,MYRTLE AVENUE
NY,11203,Kings,Brooklyn,-73.93057234,40.65160825,NEYMAR FARMS II LLC,878-880,UTICA AVENUE
NY,10034,New York,Manhattan,-73.91492794,40.87079234,FOOD FINEST GOURMET DELI INC,5085,BROADWAY
NY,11224,Kings,Brooklyn,-73.99923681,40.57490579,RACO DELI GROCERY CORP,3222,MERMAID AVE
NY,10469,Bronx,Bronx,-73.8572348,40.86563265,AL REHMAN GROCERY & HALAL MEAT INC,1059,ALLERTON AVE
NY,11355,Queens,Queens,-73.83508377,40.74570974,M GIL CORP,58-17,COLLEDGE POINT BLVD
NY,11358,Queens,Queens,-73.80395967,40.75962563,HOLA MARKET INC,42-19,162ND ST
NY,10303,Richmond,Staten Island,-74.16853633,40.62835413,ROMAN CONVENIENCE INC,451,NORTHFIELD AVE #5
NY,11355,Queens,Queens,-73.82585304,40.74589964,ZHEN ZHEN GROCERY INC,5717A,MAIN ST
NY,11368,Queens,Queens,-73.86855984,40.74771842,LUCKY 888 MARKET INC,35-30A,JUNCTION BLVD
NY,11355,Queens,Queens,-73.82609963,40.75183109,NO NO GROCERY INC,43-29,MAIN ST
NY,11230,Kings,Brooklyn,-73.96241058,40.61124025,EXPRESS JUICE & DELI CORP,1891,CONEY ISLAND AVE
NY,11237,Kings,Brooklyn,-73.92553231,40.70304347,FRESH & TASTY SUSHI INC,229,KNICKERBOCKER AVE
NY,10452,Bronx,Bronx,-73.91591307,40.83981936,TOP TOP DELI CORP,1405,WALTON AVE STORE ONE
NY,11368,Queens,Queens,-73.85525876,40.75196943,BEST LUCKY MARKET INC,111-17A,ROOSEVELT AVE
NY,11105,Queens,Queens,-73.9114228,40.77532833,GREEN HOUSE FARMERS MARKET LLC,22-33,31ST ST
NY,10019,New York,Manhattan,-73.97978744,40.76618091,CENTRAL VALLEY DELI INC,916,SEVENTH AVE
NY,10460,Bronx,Bronx,-73.89511815,40.83393921,ETS ESSOVALENINI LLC,1458,BOSTON RD
NY,11210,Kings,Brooklyn,-73.9507066,40.63546936,1444 FLATBUSH MEAT CORP,1444,FLATBUSH AVE
NY,11435,Queens,Queens,-73.80711093,40.70166368,MR GREEN JUICE BAR & GRILL INC,147-20,JAMAICA AVE
NY,11101,Queens,Queens,-73.94263482,40.7485619,ICHIBAN NY SUSHI LLC,43-18,CRESCENT ST
NY,10467,Bronx,Bronx,-73.8756107,40.8795213,266 DELI & GOURMET CORP,266,E GUN HILL RD
NY,10304,Richmond,Staten Island,-74.09187402,40.60012489,MUKTI 1098 PETROLEUM INC,1098,RICHMOND ROAD
NY,10458,Bronx,Bronx,-73.89406496,40.86371588,271 CONVENIENCE STORE INC,271,E KINGSBRIDGE RD
NY,11433,Queens,Queens,-73.78235792,40.69526179,TASTE BUDZ NYC LLC,110-28,MERRICK BLVD
NY,10453,Bronx,Bronx,-73.9054703,40.85564641,JEROME EXPRESS CONVENIENCE CORP,2130,JEROME AVE.
NY,11209,Kings,Brooklyn,-74.02833232,40.6305509,BAY RIDGE FISHBAR CORP,7608,3RD AVE
NY,10303,Richmond,Staten Island,-74.15707316,40.6262636,ISLAND MINI MARKET DELI INC,2031,FOREST AVE #4
NY,10454,Bronx,Bronx,-73.92156699,40.80477718,MUKTI 590 PETROLEUM INC,119,BRUCKNER BLVD
NY,11355,Queens,Queens,-73.81494106,40.73970407,RED TOP INTERNATIONAL INC,60-05,KISSENA BLVD
NY,11222,Kings,Brooklyn,-73.95949242,40.73201669,MON AMOUR GRILL AND DELI INC,144,WEST STREET
NY,10021,New York,Manhattan,-73.95269621,40.76800892,HL DELI CORP,1384,YORK AVE
NY,10460,Bronx,Bronx,-73.88777803,40.83130176,ROCHELL DELI GROCERY CORP,984,JENNINGS STREET
NY,11104,Queens,Queens,-73.91895142,40.74252265,K CHOICE FARM INC,45-20,46TH STREET
NY,10472,Bronx,Bronx,-73.87870144,40.82879792,FIVE STAR CONVENIENCE & DELI CORP,1531,WESTCHESTER AVE STORE 1
NY,10459,Bronx,Bronx,-73.89837268,40.8279733,FAMOUS 837 GOURMET DELI INC,837,HOME ST
NY,10040,New York,Manhattan,-73.92940375,40.85535609,1613 GOURMET DELI INC,1613,ST.NICHOLAS AVE
NY,11235,Kings,Brooklyn,-73.94873769,40.59279114,FAMILY PHARMACY GROUP INC,2108,AVE X
NY,10014,New York,Manhattan,-74.00687448,40.74080403,PETROSSIAN BOUTIQUE INC,419,WEST 13TH STREET
NY,10029,New York,Manhattan,-73.94826185,40.79045901,DALILAS FOOD MARKET INC,126,E 103RD ST.
NY,11385,Queens,Queens,-73.92241281,40.69051562,LINDEN DELI CONVENIENCE CORP.,19-38,LINDEN ST
NY,11237,Kings,Brooklyn,-73.9308373,40.70378271,JC DELI & GRILL II GROCERY CORP,1004,FLUSHING AVENUE
NY,11385,Queens,Queens,-73.90613968,40.69688625,WYCKOFF MARKET CORP,919,WYCKOFF AVE
NY,11233,Kings,Brooklyn,-73.91397835,40.67176086,4 J GRILL CORP,1634,EASTERN PKWY
NY,11216,Kings,Brooklyn,-73.95028851,40.67062172,777 NOSTRAND DELI CORP,777,NOSTRAND AVE
NY,10010,New York,Manhattan,-73.98358403,40.73793226,3RD AVE FOOD GROUP LLC,275,3RD AVE
NY,11203,Kings,Brooklyn,-73.93736998,40.66344145,YL DELI MARKET CORP,438,TROY AVENUE
NY,11422,Queens,Queens,-73.7397833,40.65954093,ROSEDALE DELI MARKET INC,145-01,243RD ST
NY,10462,Bronx,Bronx,-73.85229685,40.83577409,CASTLE HILL SUPERMARKET INC,1375,CASTLE HILL AVE
NY,10019,New York,Manhattan,-73.98627931,40.76749393,KITCHEN VALLEY MARKETPLACE INC,863,9TH AVE
NY,10029,New York,Manhattan,-73.93939916,40.79116866,ALIMENTUS GUATEMIX 502 LLC,339,E 108TH ST
NY,11207,Kings,Brooklyn,-73.9052714,40.68894066,FIRE HOUSE DELI & GRILL 2 CORP,644,WILSON AVE
NY,11220,Kings,Brooklyn,-74.00251497,40.64207112,LUCKY THREE LADIES INC,4801,8TH AVE
NY,10011,New York,Manhattan,-73.99886465,40.73375962,WEST 9TH FINEST DELI LLC,64,W 9TH STREET
NY,11354,Queens,Queens,-73.82778733,40.76625869,LVK GROUP INC,3426,UNION STREET
NY,10035,New York,Manhattan,-73.9371306,40.8066637,104 HARLEM DELI CORP,104,E 128TH ST.
NY,10458,Bronx,Bronx,-73.8944626,40.86034187,CHOSEN RX INC,332,EAST 188TH STREET
NY,11224,Kings,Brooklyn,-73.97137956,40.57640167,76 CIBO CORP,76,W BRIGHTON AVE #C-102
NY,11229,Kings,Brooklyn,-73.95183623,40.59922019,AVE U SIZZLING GRILL CORP,1922,AVENUE U
NY,11222,Kings,Brooklyn,-73.94675688,40.72501386,WZ KRAJAN INC,160,NASSAU AVE
NY,11212,Kings,Brooklyn,-73.92112217,40.66063158,FRIENDLY GOURMET DELI AND GRILL INC,1127,CLARKSON AVE
NY,10460,Bronx,Bronx,-73.88766748,40.83716218,MYA GOURMET DELI CORP,1718,SOUTHERN BLVD
NY,11238,Kings,Brooklyn,-73.96126495,40.68243446,DAOFU CHEN,1017,FULTON ST
NY,11368,Queens,Queens,-73.85942759,40.75166651,TIENDA GUATEMALTECA SABOR CHAPIN CORP,38-22,108TH ST
NY,10470,Bronx,Bronx,-73.87255189,40.89635899,FAMOUS DELI CORP THE,4201,ONEIDA AVE
NY,11434,Queens,Queens,-73.77522956,40.67291466,MALEK DELI CORP,137-44,GUY R BREWER BLVD
NY,10018,New York,Manhattan,-73.99138188,40.75612476,HELLS KITCHEN STORE LLC,304,WEST 40TH ST
NY,11432,Queens,Queens,-73.80160738,40.70774173,AL FALAH MEATS INC,160-02,HILLSIDE AVE STORE#4
NY,11368,Queens,Queens,-73.86858163,40.74808082,CC HAPPY LAND INC,40-43,JUNCTION BLVD STORE A
NY,11385,Queens,Queens,-73.9069912,40.70252572,QUEENS STAR MINI MARKET CORP,719,SENECA AVE
NY,10003,New York,Manhattan,-73.98057484,40.73441077,FANTASY DELI CORP,327,1ST AVE
NY,11211,Kings,Brooklyn,-73.94612974,40.7115643,UBI MARKET INC,655,GRAND STREET
NY,11234,Kings,Brooklyn,-73.91754837,40.62917866,SMOKEY GRILL INC,1977,RALPH AVE
NY,11101,Queens,Queens,-73.92803648,40.73840802,MEET DELI & GROCERY INC,38-15,GREENPOINT AVE
NY,10012,New York,Manhattan,-73.99666591,40.72203502,MYK MART LLC,54,SPRING STREET
NY,10473,Bronx,Bronx,-73.86156187,40.8148332,NATALIA GROCERY CORP,459,TAYLOR AVENUE
NY,10457,Bronx,Bronx,-73.89952611,40.83959695,ADALYNE DELI GROCERY CORP,551,EAST 172ND ST.
NY,10022,New York,Manhattan,-73.97196143,40.75682398,LEXINGTON DELI & CONVENIENCE CORP,569,LEXINGTON AVE
NY,10029,New York,Manhattan,-73.94270322,40.79397086,MR MOH DELI CORP,2001,3RD AVE
NY,11364,Queens,Queens,-73.75835659,40.74045396,ANGIE CONVENIENCE STORE INC,73-10,BELL BLVD
NY,11101,Queens,Queens,-73.92464259,40.75472836,SELENAS GOURMET LLC,41-28,37TH STREET -
NY,10011,New York,Manhattan,-74.00113397,40.74135128,CHELSEAS SIGNATURE DELI CORP,134,8TH AVENUE
NY,10471,Bronx,Bronx,-73.90027394,40.90542272,N DELICATESSEN LLC,5706,MOSHOLU AVE
NY,11230,Kings,Brooklyn,-73.96246833,40.62519591,BROOKLYN BAKING INC,1321,AVENUE J
NY,10027,New York,Manhattan,-73.95295764,40.81360647,CHUBBZWAY DELI INC,21,CONVENT AVE
NY,10002,New York,Manhattan,-73.98869405,40.71329378,LOS MUCHACHOS MEAT MARKET & GROCERY CORP,26,JEFFERSON ST
NY,10467,Bronx,Bronx,-73.86825591,40.87542263,MANDEEPS CORNER DELI LLC,3401,OLINVILLE AVENUE
NY,11221,Kings,Brooklyn,-73.93521139,40.69681534,BROADWAY FAMOUS DELI 1 CORP,948,BROADWAY
NY,11224,Kings,Brooklyn,-73.98845274,40.57456054,TOP DELI CORP,2115,SURF AVE
NY,11355,Queens,Queens,-73.82185143,40.7567537,BOWNE MINI MARKET CORP,42-14,BOWNE ST
NY,11205,Kings,Brooklyn,-73.95558973,40.69100458,BEDSTUY GOURMENT DELI INC,994,BEDFORD AVE
NY,11417,Queens,Queens,-73.83679402,40.68193888,FRESH 2 GO JUICE BAR & SALAD INC,104-02,LIBERTY AVE
NY,10027,New York,Manhattan,-73.95301245,40.80803242,YDHNY INC,233,ST NICHOLAS AVE
NY,10011,New York,Manhattan,-74.00326138,40.74353778,CHELSEA DELI & CAF INC,130,9TH AVE
NY,10027,New York,Manhattan,-73.95301245,40.80803242,JAY SUSHI INC,233,ST NICHOLAS AVE
NY,11215,Kings,Brooklyn,-73.98349006,40.66483372,CHEESE PLATE PARK SLOPE LLC,400,7TH AVE
NY,11212,Kings,Brooklyn,-73.90843406,40.6688176,BELMONT MINI MARKET NY INC,51,BELMONT AVE
NY,11221,Kings,Brooklyn,-73.9275826,40.69125411,PATCHEN DELI AND GRILL CORP,33,PATCHEN AVENUE
NY,11221,Kings,Brooklyn,-73.92643571,40.68543728,LA NATURAL GOURMET CORP,177,PATCHEN AVENUE
NY,11101,Queens,Queens,-73.9289911,40.74243544,1-800-FLOWERS.COM INC,36-01,47TH AVE
NY,11379,Queens,Queens,-73.87917896,40.71264293,METRO KING DELI CORP,73-02,METROPOLITAN AVE
NY,10029,New York,Manhattan,-73.94384986,40.79889183,PAMELA GROCERY STORE CORP,1626,PARK AVE
NY,10456,Bronx,Bronx,-73.90259648,40.83610501,IN & OUT DELI 1 & GROCERY INC,3742,3RD AVE
NY,10032,New York,Manhattan,-73.94068653,40.83442511,160 GROCERY INC,2011C,AMSTERDAM AVE
NY,11414,Queens,Queens,-73.83930524,40.65809044,PKSD INC,159-35,CROSS BAY BLVD
NY,10029,New York,Manhattan,-73.93772487,40.79676916,SMS 2ND CS LLC,2256,2ND AVE.
NY,10473,Bronx,Bronx,-73.86767454,40.82232419,ROSEDALE DELI & JUICE BAR CORP,843,SOUNDVIEW AVE
NY,11213,Kings,Brooklyn,-73.92801913,40.67064574,HAEMAH FOOD CORP,237,ROCHESTER AVE
NY,10011,New York,Manhattan,-73.99820248,40.74501145,MADISON SQUARE CONVIENENCE CORP,266,W 23RD ST
NY,10452,Bronx,Bronx,-73.92575149,40.84024412,169 STREET MATANZA DELI GROCERY INC,157,W 169TH STREET
NY,10027,New York,Manhattan,-73.95959544,40.81436696,JOE M MINIMARKET INC,3149,BROADWAY
NY,10454,Bronx,Bronx,-73.91720958,40.80749011,NOAH DELI AND GROCERY CORP,229,SAINT ANNS AVE
NY,10030,New York,Manhattan,-73.94019829,40.81563414,NY CITY GRILL CORP,101,W 137TH STREET
NY,11214,Kings,Brooklyn,-73.99769253,40.61190779,NEW JOJO GROCERY INC,7718,18TH AVE
NY,10031,New York,Manhattan,-73.95521581,40.82037917,MAXS GOURMET DELI CORP,3345,BROADWAY
NY,11236,Kings,Brooklyn,-73.91282894,40.63549136,ALSALAM MARKET CORP,8002,FLATLANDS AVE.
NY,11206,Kings,Brooklyn,-73.93530305,40.69691575,AFS MARKET INC,1102,MYRTLE AVE
NY,11417,Queens,Queens,-73.85134701,40.67495387,PITKIN CONVENIENCE 1 CORP,85-02,PITKIN AVE
NY,11368,Queens,Queens,-73.86627669,40.757425,102 BEBE SHOP INC,102-06,NORTHERN BLVD
NY,11368,Queens,Queens,-73.8592509,40.74570233,EL GUALACENITO CAFE CORP,104-04,47TH AVE STORE B
NY,11218,Kings,Brooklyn,-73.97950019,40.64208893,TAKISHA GROCERY CORP,490,MCDONALD AVE
NY,11417,Queens,Queens,-73.83446854,40.68349591,EURO FOOD PLUS USA INC,106-19,LIBERTY AVE
NY,10075,New York,Manhattan,-73.95551144,40.77171397,SOMOS BRAZIL CORP,304,EAST 77TH STREET UNIT 02
NY,10451,Bronx,Bronx,-73.92014827,40.81586263,CAZARES GROCERY LLC,344,E 148TH STREET
NY,11102,Queens,Queens,-73.91501042,40.77219295,PLATA FOOD CORP,31-05,24TH AVE
NY,11422,Queens,Queens,-73.74508661,40.65670143,J & J SUPER MARKET CORP,147-26,BROOKVILLE BLVD
NY,11212,Kings,Brooklyn,-73.91534947,40.66173234,YEMEN FOOD CORP,779,SARATOGA AVE
NY,10458,Bronx,Bronx,-73.88569563,40.8589102,NEW BEST GOURMET DELI CORP,573,EAST FORDHAM RD
NY,10467,Bronx,Bronx,-73.86509015,40.86563676,ALLERTON HALAL MEAT MARKET INC,755,ALLERTON AVE
NY,11207,Kings,Brooklyn,-73.89670937,40.67190168,BUY & GO GROCERY INC,2053,PITKIN AVE
NY,11208,Kings,Brooklyn,-73.8685051,40.68459155,3442 DELI MINI MARKET CORP,3442,FULTON STREET
NY,11230,Kings,Brooklyn,-73.96614539,40.63079624,ZAMZAM GROCERY & MEATS LLC,1101,CONEY ISLAND AVE
NY,11004,Queens,Queens,-73.71725199,40.74388957,SLAK CORPORATION,253-02,UNION TPKE
NY,10013,New York,Manhattan,-73.99630625,40.71746252,AMAZE MEAT MARKET INC,62,ELIZABETH ST.
NY,11207,Kings,Brooklyn,-73.91132573,40.68353995,COOPER DELI INC,1717,BROADWAY
NY,11236,Kings,Brooklyn,-73.90980023,40.6375666,SOTO DELI & GRILL CORP,8416,FLATLANDS AVENUE
NY,10029,New York,Manhattan,-73.94576153,40.79220253,EL BARRIO CONVENIENCE SHOP INC,153,E 106TH STREET
NY,11224,Kings,Brooklyn,-73.99772245,40.57737196,FLAMMING GRILL CORP,3038,NEPTUNE AVE
NY,11004,Queens,Queens,-73.6988618,40.73993566,PREMIUM OF JACKSON HEIGHTS LLC,256-13,HILLSIDE AVE
NY,11229,Kings,Brooklyn,-73.94682829,40.6000199,BEDFORD FLAMING GRILL INC,2423,AVE U
NY,11419,Queens,Queens,-73.81632306,40.68914887,PABLA IN & OUT INC,128-22,LIBERTY AVE
NY,11101,Queens,Queens,-73.95315856,40.74604464,YASHI FOOD INC,46-30,VERNON BLVD
NY,11235,Kings,Brooklyn,-73.9496162,40.58886975,OCEAN AVE DELI & BAGEL INC,2970,OCEAN AVE
NY,10019,New York,Manhattan,-73.98966082,40.76730547,UNITED CORP 1,814,10TH AVE
NY,10301,Richmond,Staten Island,-74.08573302,40.63417109,SWARA DELI & GROCERY INC,325,VICTORY BLVD
NY,10304,Richmond,Staten Island,-74.07517409,40.62612459,LEGACY AFRICANA MARKET INC,651,BAY STREET
NY,10035,New York,Manhattan,-73.93421587,40.79734767,AB TWINS GROCERY INC,2296,1ST AVE
NY,10002,New York,Manhattan,-73.98598083,40.71811895,DELANCEY GRILL CORP,158,DELANCEY ST
NY,10312,Richmond,Staten Island,-74.16537971,40.54489757,RICHMOND CONVENIENCE STORE CORP,3829,RICHMOND AVE
NY,11223,Kings,Brooklyn,-73.96297385,40.60686486,FLAMING GRILL & DELI CAFE CORP,924,KINGS HWY
NY,10303,Richmond,Staten Island,-74.16656977,40.63541924,SOUTH AVE GOURMET DELI INC,182,SOUTH AVE
NY,11224,Kings,Brooklyn,-73.98355108,40.57664655,CONEY ISLAND FINEST DELI INC,1530,MERMAID AVE
NY,10010,New York,Manhattan,-73.98274885,40.74185013,LEX GRILL & JUICE BAR CORP,97,LEXINGTON AVENUE
NY,10302,Richmond,Staten Island,-74.13484175,40.63614473,PORT MARKET CORP THE,210,PORT RICHMOND AVE
NY,10468,Bronx,Bronx,-73.88876852,40.87263208,BEDFORD DELI 1 INC,26,BEDFORD PARK BLVD E
NY,10460,Bronx,Bronx,-73.88705191,40.84447161,SABANA BUEY DELI GROCERY CORP,804,E 178TH STREET
NY,11212,Kings,Brooklyn,-73.91632663,40.65498017,K&G MARKET LLC,9420,CHURCH AVE (#9406)
NY,11372,Queens,Queens,-73.87513444,40.74869429,ZAMAN GOURMET DELI CORP,91-09,ROOSEVELT AVE
NY,10454,Bronx,Bronx,-73.91318165,40.80738412,ILUSION DELI GROCERY CORP,662,EAST 141ST ST
NY,11229,Kings,Brooklyn,-73.95371277,40.61048748,KING DELI & GRILL 3 CORP,1932,KINGS HWY
NY,10307,Richmond,Staten Island,-74.24852283,40.510579,CB 180 CORP,180,MAIN ST.
NY,10309,Richmond,Staten Island,-74.23693426,40.53779421,HY STAR 4278 CORP,4278,ARTHUR KILL RD
NY,10474,Bronx,Bronx,-73.87402694,40.80835684,CULINART INC,155,FOOD CENTER DRIVE
NY,11373,Queens,Queens,-73.87722279,40.73719742,FUJI SHOP INC,86-55,BROADWAY STORE#B-1-B-2
NY,10470,Bronx,Bronx,-73.86737506,40.89768626,SEANS QUALITY DELI LLC,4273,KATONAH AVENUE
NY,10016,New York,Manhattan,-73.98138989,40.7501597,MADISON CAFE & GRILL CORPORATION,244,MADISON AVE
NY,10301,Richmond,Staten Island,-74.08607316,40.63667853,PRIORITY DELI & GROCERY CORP,488,JERSEY STREET
NY,10468,Bronx,Bronx,-73.90289572,40.86916822,FM GROCERY & CANDY CORP,131,WEST KINGSBRIDGE RD.
NY,10032,New York,Manhattan,-73.94166822,40.83282228,2 CAMPUS DELI CORP,469,W 157TH STREET
NY,10017,New York,Manhattan,-73.9743553,40.75336443,SOLIMANS GROCERY CORP,129,E 45TH ST #6
NY,11373,Queens,Queens,-73.87722279,40.73719742,CHAW SU KYAW INC,86-55,BROADWAY STORE#B11
NY,11419,Queens,Queens,-73.83325493,40.68376442,SUN KEY FOOD LLC,108-16,LIBERTY AVE
NY,10473,Bronx,Bronx,-73.85853368,40.82282851,ALDI INC,843,WHITE PLAINS RD
NY,11212,Kings,Brooklyn,-73.9212691,40.66053595,MARACAS BAY MARKET LLC,1123,CLARKSON AVENUE STORE 4
NY,10467,Bronx,Bronx,-73.86709984,40.87217564,Z3 MARKET AND DELI CORP,3200,WHITE PLAINS RD
NY,10035,New York,Manhattan,-73.93507192,40.80110742,2ND AVENUE FANTASY FOOD INC,2383,2ND AVE
NY,10010,New York,Manhattan,-73.99005921,40.74121076,TEN ICHI MART 5TH AVENUE INC,178,5TH AVENUE
NY,11225,Kings,Brooklyn,-73.96180709,40.66084272,A&P SUSHI LLC,33,LINCOLN RD
NY,10458,Bronx,Bronx,-73.88782011,40.8535006,413 DELI CORP,2315,HUGHES AVE
NY,11206,Kings,Brooklyn,-73.94090321,40.70000054,BETWEEN THE BUN BROOKLYN CORP,774,BROADWAY
NY,11368,Queens,Queens,-73.86858163,40.74808082,WAPE MARKET CORP,40-43,JUNCTION BLVD
NY,11419,Queens,Queens,-73.83224298,40.68416214,109-18 LIBERTY AVENUE CORP,109-18,LIBERTY AVE
NY,11208,Kings,Brooklyn,-73.88311493,40.67128523,DEYVI GROCERY DELI CORP,965,SUTTER AVENUE
NY,11223,Kings,Brooklyn,-73.98176146,40.59591822,MANGO MAS DELI CORPORATION,72,AVENUE U
NY,10463,Bronx,Bronx,-73.90249699,40.878205,231 BIG APPLE DELI GROCERY CORPORATION,141,W 231ST ST
NY,10128,New York,Manhattan,-73.94679946,40.78050332,1773 EXPRESS DELI CORPORATION,1773,1ST AVE
NY,11373,Queens,Queens,-73.86788719,40.74201089,IVILUX GROCERY CORP,94-64,CORONA AVE
NY,11212,Kings,Brooklyn,-73.90349871,40.65733917,TO THE MOOD DELI INC,41,NEW LOTS AVE
NY,10031,New York,Manhattan,-73.94934487,40.82579933,EL AGUILA REAL MEAT MARKET CORP,528,W 145TH ST  #1
NY,11217,Kings,Brooklyn,-73.98230553,40.68612598,457 FOOD CORP,457,ATLANTIC AVENUE
NY,10468,Bronx,Bronx,-73.90651678,40.86253696,DARIOS DELIGHTS CORP,2349,ANDREW AVE NORTH
NY,11206,Kings,Brooklyn,-73.94200886,40.71120317,DYLAN MARKET AND DELI CORP,276,HUMBOLDT STREET
NY,10301,Richmond,Staten Island,-74.07857932,40.63841317,LA ECONOMICA FRUITS & MEAT MARKET CORP,73,VICTORY BLVD
NY,11223,Kings,Brooklyn,-73.97072652,40.60423173,RJYY LLC,508,KINGS HWY
NY,10310,Richmond,Staten Island,-74.11737705,40.62909748,SI TRADERS INC,843,FOREST AVE
NY,11417,Queens,Queens,-73.83979038,40.67411245,LEGACY MINI MART CORP,96-19,LINDEN BLVD
NY,10466,Bronx,Bronx,-73.8603729,40.88759533,TIM LOTTERY AND GROCERY CORP,3968,WHITE PLAINS RD
NY,10451,Bronx,Bronx,-73.91361274,40.82130428,MI GERIZIN MARKET CORP,777,ELTON AVE
NY,11101,Queens,Queens,-73.9465827,40.73996546,AFRICA PRODUCT DEVELOPMENT CENTER LLC,23-23,BORDEN AVE
NY,10001,New York,Manhattan,-73.9891761,40.75023069,ELITE 128 LLC,128,W 34TH ST.
NY,10037,New York,Manhattan,-73.94177358,40.81240727,NEW YORK SEAFOOD MARKET CORP,454,LENOX AVENUE
NY,10456,Bronx,Bronx,-73.9076434,40.83623631,ABU AND BROTHERS CORP,1393,WEBBSTER AVE
NY,10451,Bronx,Bronx,-73.9228822,40.81676054,HALAL LINCOLN DELI CORP,522,MORRIS AVE
NY,11208,Kings,Brooklyn,-73.86902772,40.68444503,EL CONUQUITO 3432 CORP,3432,FULTON ST
NY,10458,Bronx,Bronx,-73.88382697,40.85410984,717 DELI GROCERY CORP,717,E 187TH ST
NY,11693,Queens,Queens,-73.81282622,40.58752542,24 7 SANDWICH SPOT CORP,8718,ROCKAWAY BEACH BLVD
NY,11213,Kings,Brooklyn,-73.939157,40.67360723,DELI 200 ALBANY CORP,200,ALBANY AVE
NY,10304,Richmond,Staten Island,-74.09246931,40.60089787,TODT HILL MINI MART INC,1060,RICHMOND RD
NY,11101,Queens,Queens,-73.94614005,40.74580211,TRADER JOES EAST INC,22-43,JACKSON AVE
NY,10024,New York,Manhattan,-73.97561229,40.78970592,2401 FOOD CORP,2401,BROADWAY
NY,10027,New York,Manhattan,-73.95069369,40.81114718,HARLEM FRAGRANCES INC,2355,FREDERICK DOUGLAS BLVD
NY,10029,New York,Manhattan,-73.94641774,40.7894945,ONE 4 ALL MINI MARKET & DELI INC,1862,3RD AVE
NY,11434,Queens,Queens,-73.79257973,40.68471007,LA FAMILIA GROCERY CORP,115-05,SUTPHIN BLVD.
NY,11221,Kings,Brooklyn,-73.92309284,40.69816,FAT CAT NY LLC,133,STANHOPE ST COMMERCAIL UNIT 2
NY,10459,Bronx,Bronx,-73.89652874,40.8211558,GINO DELI GROCERY CORP,935,E 163RD ST
NY,11212,Kings,Brooklyn,-73.90648795,40.67044876,RODRIGUEZ FAMILY GROCERY CORP,1801,PITKIN AVE
NY,10458,Bronx,Bronx,-73.88992338,40.86966489,198 99 PLUS CORP,223,E 198TH STREET
NY,11249,Kings,Brooklyn,-73.96826476,40.71095175,DOMEE SUSHI INC,11,BROADWAY
NY,11434,Queens,Queens,-73.79261908,40.6823502,HJ MART INC,119-24,SUTPHIN BLVD
NY,10301,Richmond,Staten Island,-74.08755474,40.63808535,REAL GROCERY & DELI CORP,418,JERSEY STREET
NY,11212,Kings,Brooklyn,-73.90336494,40.65673584,GRAB & GO GROCERY INC 1,879,MOTHER GASTON BLVD
NY,10301,Richmond,Staten Island,-74.08614784,40.63367023,RED & BLACK CONVENIENCE INC,353,VICTORY BLVD
NY,10314,Richmond,Staten Island,-74.12235532,40.6132064,MANOR CONVENIENCE CORP,1763,VICTORY BLVD
NY,11691,Queens,Queens,-73.77551937,40.59557519,43-21 DELI & GROCERY CORP,43-21,BEACH CHANNEL DRIVE
NY,11226,Kings,Brooklyn,-73.96278282,40.64179036,1626 GOURMET DELI CORP,1626,CORTELYOU ROAD
NY,11223,Kings,Brooklyn,-73.98000244,40.60504381,284 KINGS HWY INC,284,KINGS HWY
NY,11211,Kings,Brooklyn,-73.96056003,40.7129492,728 ORGANIC DELI GROCERY INC,728,DRIGGS AVE
NY,10013,New York,Manhattan,-73.99616183,40.71906925,GOLDEN STEAMER I INC,210,GRAND ST
NY,10304,Richmond,Staten Island,-74.08145641,40.62415224,LUX CONVENIENCE CORP,197,BROAD ST.
NY,10022,New York,Manhattan,-73.96556637,40.76021203,DISALCUMBRES CORP,238,E 58TH STREET
NY,11224,Kings,Brooklyn,-73.98088304,40.57506438,PEPPER PALACE INC,3011,STILLWELL AVE
NY,11368,Queens,Queens,-73.8656457,40.7440829,DELI GROCERY ORIENTAL CORP,97-56,CORONA AVENUE
NY,10460,Bronx,Bronx,-73.8674484,40.83813603,STOP 1 KING DELI & GROCERY CORP,1803,MANSION ST
NY,11432,Queens,Queens,-73.80788425,40.71664839,PARSONS DELI & GROCERY LLC,82-69,PARSONS BLVD
NY,11208,Kings,Brooklyn,-73.87077325,40.67898883,CRESENT DELI & CONVENIENCE INC,403,CRESENT ST
NY,10460,Bronx,Bronx,-73.88321023,40.84522443,868 JUQUILA BAKERY AND DELI GROCERY CORP,868,EAST 180TH ST.
NY,10302,Richmond,Staten Island,-74.13422636,40.63275509,SIN FRONTERA DELI AND GROCERY STORE LLC,340,HEBERTON AVENUE
NY,10304,Richmond,Staten Island,-74.07641478,40.62560156,MEXICO AZTECA FOODS CORP,33,BROAD ST
NY,11212,Kings,Brooklyn,-73.92454626,40.66403061,NAS SUPER DELI INC,1067,RUTLAND RD
NY,11214,Kings,Brooklyn,-73.99278057,40.60153518,86 FOOD MARKET INC,2231,86TH ST
NY,11226,Kings,Brooklyn,-73.94951125,40.6487921,FROZEN LAVA 1 CORP,1528,NOSTRAND AVE
NY,10003,New York,Manhattan,-73.99140266,40.73084897,WEGMANS FOOD MARKETS INC,770,BROADWAY
NY,11222,Kings,Brooklyn,-73.94427466,40.72574175,CAMPBELL SISTERS DEUX LLC,209,NASSAU AVE
NY,10036,New York,Manhattan,-73.99271167,40.75803567,ESAM FOOD CORP,572,9TH AVE
NY,11229,Kings,Brooklyn,-73.96006658,40.59856598,KING 1201 DELI & GRILL INC,1201,AVENUE U
NY,10310,Richmond,Staten Island,-74.10622468,40.63461483,BABA SHAWARMA CORP,714,CASTLETON AVE
NY,10034,New York,Manhattan,-73.9182429,40.86822748,AMEER DELI & GRILL CORP,4996,"BROADWAY, STORE 1"
NY,11354,Queens,Queens,-73.81954876,40.76497333,JINBO HOLDINGS INC,146-26,NORTHERN BLVD
NY,11233,Kings,Brooklyn,-73.92461742,40.67730214,EXPRESS 24 DELI CORP,53,BUFFALO AVENUE
NY,11365,Queens,Queens,-73.78361981,40.73335453,FRESH MEADOWS FOOD MART INC,69-74,188TH ST
NY,11212,Kings,Brooklyn,-73.91351836,40.65722463,BIG CORNER DELI GROCERY INC,2314,STRAUSS STREET
NY,11355,Queens,Queens,-73.82573565,40.75038215,GOOD FORTUNE SUPERMARKET OF NY INC,42-76,MAIN ST
NY,10467,Bronx,Bronx,-73.86781947,40.87721057,ABBY MART LLC,688,E GUN HILL RD
NY,11229,Kings,Brooklyn,-73.94619529,40.60009505,RIGHTWAY PHARMACY INC,2511,AVENUE U
NY,10467,Bronx,Bronx,-73.87995403,40.87504536,BUS STOP MINI MARKET 1 CORP,271,E 206TH STREET
NY,11385,Queens,Queens,-73.90775596,40.69779904,ITZELS TAQUERIA DELI CORP,853,WYCKOFF AVE
NY,10075,New York,Manhattan,-73.95988746,40.77385224,RSJ GROUP CORP,1102,LEXINGTON AVE
NY,11206,Kings,Brooklyn,-73.93625485,40.69769539,ACATLAN MINI FRUIT & GROCERY MARKET CORP,915,BROADWAY
NY,11355,Queens,Queens,-73.83429001,40.75558023,41 AVE ASIAN CONVENIENCE STORE INC,41-09,HAIGHT STREET
NY,11368,Queens,Queens,-73.86845808,40.74655606,S&H MINI FOOD MART INC,41-36,JUNCTION BLVD
NY,11420,Queens,Queens,-73.81836171,40.67584524,119 A&S DELI CORP,119-20,ROCKAWAY BLVD
NY,10455,Bronx,Bronx,-73.90205619,40.81914678,THOMAS LEKISHA,805,PROSPECT AVENUE
NY,11372,Queens,Queens,-73.88969766,40.74907307,GJHS ANDY BAKERY INC,76-10,37TH AVE
NY,11420,Queens,Queens,-73.80716257,40.6747263,SK SWEETS DISTRIBUTOR INC,131-06,ROCKAWAY BLVD
NY,11212,Kings,Brooklyn,-73.9084732,40.66024488,GGJ&G FOOD CORP,800,ROCKAWAY AVENUE
NY,11211,Kings,Brooklyn,-73.95442959,40.70709184,SAVOURY INC,394,BROADWAY
NY,11106,Queens,Queens,-73.93958951,40.76582304,MOKAFE CORP,33-49,VERNON BLVD
NY,11207,Kings,Brooklyn,-73.90998362,40.68729873,EVERGREEN FOOD MART CORP,661,EVERGREEN AVE
NY,10456,Bronx,Bronx,-73.91582631,40.83414603,HONOR GROCERY & DELI CORP,1217,SHERMAN AVE
NY,10303,Richmond,Staten Island,-74.14615799,40.63391376,MI PUEBLO CUISINE & PANADERIA CORP,166,MORNINGSTAR RD
NY,11101,Queens,Queens,-73.94449703,40.74646261,TESOLIFE LIC INC,2429,JACKSON AVE
NY,11205,Kings,Brooklyn,-73.9711954,40.69812136,TRANSMITTER BREWING LLC,141,FLUSHING AVE BLDG 77
NY,11372,Queens,Queens,-73.89452689,40.75064476,APAN BAZAAR INC,71-10,35TH AVE
NY,11432,Queens,Queens,-73.77447306,40.71474905,SRK RETAIL INC,187-20,HILLSIDE AVE
NY,10027,New York,Manhattan,-73.95301245,40.80803242,LM V INC,233,ST NICHOLAS AVE
NY,10467,Bronx,Bronx,-73.87804447,40.87263879,204 DELI GROCERY CORP,319,E 204TH STREET
NY,10453,Bronx,Bronx,-73.90493638,40.85882902,LOLYS PHARMACY INC,21,W 183RD STREET
NY,10035,New York,Manhattan,-73.93924887,40.80215386,1 OCEAN DELI CORP,1990,LEXINGTON AVE
NY,10035,New York,Manhattan,-73.93403155,40.79703147,AB FRESH DELI GROCERY JUICE BAR 1 INC,402,E 118TH STREET
NY,10026,New York,Manhattan,-73.95928387,40.80114178,321 W DELI CORP,321,W 110TH STREET
NY,11234,Kings,Brooklyn,-73.93623197,40.62227,FLATBUSH FLAMING GRILL INC,1953,FLATBUSH AVE
NY,11366,Queens,Queens,-73.78893612,40.72651016,URBAN DELI & CONVENIENCE CORP,17902,UNION TPKE
NY,11212,Kings,Brooklyn,-73.91107646,40.65892176,874 DELI GROCERY CORP,874,THOMAS S BOYLAND STREET
NY,11221,Kings,Brooklyn,-73.93682893,40.69123018,SCARLETT GROCERY LLC,158,LEWIS AVENUE
NY,11233,Kings,Brooklyn,-73.9109405,40.67462928,OCH DELI CORP,231,ROCKAWAY AVE
NY,10037,New York,Manhattan,-73.94153143,40.81344841,ARKAN FOOD CORP,477,MALCOLM BLVD
NY,10308,Richmond,Staten Island,-74.16292792,40.56030272,ARMSTRONG AUTO CENTER INC,630,ARTHUR KILL RD
NY,10461,Bronx,Bronx,-73.85152882,40.85085737,DOLLAR TREE STORES INC,1820,WILLIAMSBURG RD
NY,10029,New York,Manhattan,-73.94425496,40.78783899,102 FAMILY ORGANIC DELI CORP,1980,2ND AVE
NY,11212,Kings,Brooklyn,-73.90602737,40.66788138,361 BROWNSVILLE CONVENIENCE CORP,361,SUTTER AVE
NY,11221,Kings,Brooklyn,-73.93933948,40.68878011,EVERYTHING MOVING CONVENIENCE STORE LLC,258,MARCUS GARVEY BLVD
NY,11220,Kings,Brooklyn,-74.00384384,40.64464222,EL QUETZALITO 7 CORP,4604,7TH AVENUE
NY,11220,Kings,Brooklyn,-74.01235491,40.63645482,MY FAMILY MARKET INC,6022,7TH AVE
NY,10467,Bronx,Bronx,-73.8734501,40.87873288,TIMS CANDY & GROCERY CORP,3374,HULL AVE
NY,10451,Bronx,Bronx,-73.92612155,40.82526968,NEW STOP GROCERY INC,120,E 157TH STREET
NY,11377,Queens,Queens,-73.91789304,40.73900837,JOY BABY & GROCERY INC,47-18,48TH AVENUE
NY,11235,Kings,Brooklyn,-73.95130967,40.58529076,BAY GOURMET DELI & JUICE BAR INC,1725,SHEEPSHEAD BAY RD
NY,10462,Bronx,Bronx,-73.86595231,40.85456959,MI FAVORITA FRUIT MEAT MARKET CORP,745-747,LYDIG AVE
NY,10014,New York,Manhattan,-74.00169614,40.73686843,79 GREENWICH INCORPORATED,79,GREENWICH AVE
NY,10029,New York,Manhattan,-73.94746029,40.79087328,1642 LEX LLC,1642,LEXINGTON AVE.
NY,11357,Queens,Queens,-73.80926508,40.78850908,HANDSOME SEAFOOD CORP,153-55,CROSS ISLAND PKWY
NY,10473,Bronx,Bronx,-73.85641061,40.8115151,CASA AMIGOS DELI & GROCERY CORP,301,SOUNDVIEW AVE
NY,10031,New York,Manhattan,-73.95201023,40.81953809,NEW AMSTERDAM DELI CORP,1536,AMSTERDAM AVE
NY,11231,Kings,Brooklyn,-73.99952641,40.68354989,ALHELAL CORP,531,HENRY STREET
NY,11205,Kings,Brooklyn,-73.95892678,40.69860256,REB SHAYALAS MEALS INC,392,FLUSHING AVE
NY,10035,New York,Manhattan,-73.93291131,40.79569967,FINE DELI CORP,315,PLEASANT AVE
NY,11229,Kings,Brooklyn,-73.94146999,40.59722877,MUSAED DELI INC,3554,NOSTRAND AVE
NY,11368,Queens,Queens,-73.85975146,40.75023673,CARLOS CARNICERIA DELI CORP,104-54,ROOSEVELT AVE
NY,10473,Bronx,Bronx,-73.85526171,40.8094024,MY WAY SUPERMARKET CORP,200,SOUNDVIEW AVENUE
NY,10455,Bronx,Bronx,-73.9168681,40.81768829,616 SUPERMRKET CORP,616,MELROSE AVENUE
NY,10473,Bronx,Bronx,-73.87466614,40.82259921,BRUCKNER JUICE BAR & GROCERY INC,1616,BRUCKNER BLVD
NY,11368,Queens,Queens,-73.86479385,40.75754357,103 DELI GROCERY CORP,103-22,NORTHERN BLVD
NY,10461,Bronx,Bronx,-73.83091214,40.84858967,NONAS EUROPEAN MARKET INC.,3071,WESTCHESTER AVE
NY,11416,Queens,Queens,-73.85006794,40.68495222,91 UNION FAMILY DELI CORP,91-02,97TH AVE
NY,10019,New York,Manhattan,-73.98136232,40.7640245,HEAVEN ON 7TH MARKETPLACE INC,850,7TH AVENUE
NY,11433,Queens,Queens,-73.79434764,40.69338827,RINCONCITO CENTROAMERICANO CORP,108-55,157TH STREET
NY,11205,Kings,Brooklyn,-73.95915078,40.6940341,SWEET PISTACHIO LLC,881,KENT AVE#
NY,11428,Queens,Queens,-73.73236699,40.72053679,SHAMBHU 22201 INC,222-01,JAMAICA AVE
NY,11435,Queens,Queens,-73.80858296,40.70624984,AMH SUPERMARKET LLC,148-11,HILLSIDE AVE
NY,10005,New York,Manhattan,-74.00874055,40.70541685,ASARO FARMS LLC,85,BEAVER ST
NY,11378,Queens,Queens,-73.89203378,40.72774661,MIMI AND COCO BAKERY & BAGELS STORE INC,71-02,GRAND AVE
NY,10462,Bronx,Bronx,-73.86034013,40.84784491,BRONXDALE VEGS & MEAT CORP,1859,BRONXDALE AVE
NY,11411,Queens,Queens,-73.74357552,40.70275739,COLFAX DELI & GROCERY INC,114-01,COLFAX STREET
NY,10452,Bronx,Bronx,-73.91890633,40.83525772,DINOAH MARKET CORP,111,EAST 167TH STREET
NY,11207,Kings,Brooklyn,-73.89634778,40.6580453,ISH DELI GROCERY CORP,1789,LINDEN BLVD
NY,11236,Kings,Brooklyn,-73.91219024,40.63641509,YK DISCOUNT STORE LLC,8119,FLATLANDS AVE
NY,11372,Queens,Queens,-73.88741786,40.7555045,AA NY MARKET CORP,79-23,NORTHERN BLVD
NY,11220,Kings,Brooklyn,-74.0093272,40.64281882,MING XING GROCERY INC,5124,6TH AVE
NY,11208,Kings,Brooklyn,-73.87032448,40.67551696,ASFC INC,2754,PITKIN AVENUE
NY,11214,Kings,Brooklyn,-73.99004597,40.59988257,J VILLAGE MARKET INC,2357-2359,86TH STREET
NY,11226,Kings,Brooklyn,-73.96171505,40.63617763,USA DELI & GRILL INC,1624,NEWKIRK AVE
NY,11432,Queens,Queens,-73.80263709,40.71448221,QUEENS ORGANIC DELI I INC,84-28,164TH STREET
NY,11216,Kings,Brooklyn,-73.94499718,40.68027021,K&S GROCSERY DELI CORP,1403,FULTON ST
NY,11221,Kings,Brooklyn,-73.91200031,40.69277916,NATURAL FARM MARKET CORP,472,WILSON AVE
NY,11211,Kings,Brooklyn,-73.94459175,40.71480508,ONE LOVE DELI CORP 1,339,GRAHAM AVE
NY,11233,Kings,Brooklyn,-73.91420928,40.68088431,HEALTHY FRIENDS DELI & JUICE BAR CORP,116,THOMAS S BOYLAND ST
NY,11233,Kings,Brooklyn,-73.92097465,40.68598826,K STAR DELI CORP,865,HANCOCK ST
NY,11433,Queens,Queens,-73.78639682,40.6897097,KAZI DELI & JUICE BAR I CORP,112-44,GUY R BREWER BLVD
NY,11211,Kings,Brooklyn,-73.95844351,40.71466858,DELI D AMOUR CORP,268,METROPOLITAN AVE
NY,11106,Queens,Queens,-73.93913186,40.76217809,NEW SIAM TRADING INC,35-15,11TH STREET
NY,10029,New York,Manhattan,-73.94552817,40.79305065,TIPICOS GUATEMAYA MARINITA CORP,1715,LEXINGTON AVE
NY,10453,Bronx,Bronx,-73.90428963,40.85736482,JEROME AVE DOLLAR DISCOUNT & GROCERY COR,1,E 182ND ST
NY,10460,Bronx,Bronx,-73.86890777,40.84432745,MAX SUPER DISCOUNT LLC,620,MORRIS PARK
NY,10032,New York,Manhattan,-73.93729647,40.84390965,173 PHARMACY CORP,572,W 173RD STREET
NY,10002,New York,Manhattan,-73.99017807,40.71692755,FENG YUAN MEAT MARKET INC,337,GRAND ST
NY,11216,Kings,Brooklyn,-73.95025297,40.68447357,AFRICAN MARKET KEUR SOKHNA DIARRA INC,387,NOSTRAND AVE
NY,10460,Bronx,Bronx,-73.8851436,40.84648528,AMS PHARMACY INC,817,EAST 180TH ST
NY,10032,New York,Manhattan,-73.94442159,40.83425462,3788 FOOD CORP,3788,BROADWAY
NY,11215,Kings,Brooklyn,-73.97870249,40.66985784,CHEFFO FARMS LLC,453,4TH STREET
NY,11358,Queens,Queens,-73.8044216,40.75623264,LUCEROS GROCERY STORE INC,45-03,162ND STREET
NY,11217,Kings,Brooklyn,-73.9821016,40.68302778,FAST STAR 2 CORP,103,3RD AVE
NY,11236,Kings,Brooklyn,-73.91797879,40.65143601,REDAN DELI CORP,9007,AVENUE A
NY,10453,Bronx,Bronx,-73.91202193,40.84848131,JEROME DELI DELICIOUS INC,1769,JEROME AVE
NY,11218,Kings,Brooklyn,-73.96893279,40.6472733,RIZKQ INC,1111,CHURCH AVE
NY,11229,Kings,Brooklyn,-73.95735889,40.60820605,DELI HOT FOOD GRILL GROCERY INC,1702,E 16TH ST.
NY,10461,Bronx,Bronx,-73.8337109,40.83683461,BIG O OF DA BRONX INC,3191,E TREMONT AVE
NY,11104,Queens,Queens,-73.92401275,40.74407741,VMAA INC,40-03,QUEENS BLVD
NY,10014,New York,Manhattan,-74.00549759,40.73379399,BIG NIGHT WEST VILLAGE LLC,236,W 10TH ST
NY,11205,Kings,Brooklyn,-73.95892678,40.69860256,ROSEMARY KOSHER LLC,392,FLUSHING AVE
NY,11207,Kings,Brooklyn,-73.8830462,40.66610279,DOMINUS RX LLC,740,NEW LOTS AVENUE
NY,10457,Bronx,Bronx,-73.89596305,40.84675371,SISI FAMILY DELI CORP,531,E TREMONT AVE
NY,10461,Bronx,Bronx,-73.85612151,40.85653585,2143 PALMA EXOTIC DELI CORP,2143,WILLIAMSBRIDGE RD
NY,11212,Kings,Brooklyn,-73.90909908,40.66266751,700 GOURMET DELI I CORP,700,ROCKAWAY AVE
NY,11355,Queens,Queens,-73.82585304,40.74589964,5717 BABY & MUM INC,57-17A,MAIN STREET
NY,11237,Kings,Brooklyn,-73.9151162,40.70164118,RICO AMBATENO DELI LLC,198,WYCKOFF AVENUE
NY,10459,Bronx,Bronx,-73.89603396,40.82105269,KELLY SREET DELI CORP,947,E 163RD STREET
NY,10016,New York,Manhattan,-73.98121102,40.74465526,GRACEFULLY DELI CORP,180,LEXINGTON AVE
NY,11237,Kings,Brooklyn,-73.91028378,40.69654997,KISHAN 422 INC,422,IRVING AVE
NY,11211,Kings,Brooklyn,-73.95103232,40.7139513,HENU FOOD INC,534,METROPOLITAN AVE
NY,11355,Queens,Queens,-73.82879643,40.75862764,HAPPY CORNER GROCERY INC,136-16,41ST AVE
NY,10457,Bronx,Bronx,-73.90244846,40.85139192,260 BURNSIDE DELI INC,260,E BURNSIDE AVE
NY,11206,Kings,Brooklyn,-73.94078033,40.71180666,DIAMOND EXPRESS DELI MARKET INC,98,BUSHWICK AVENUE
NY,11213,Kings,Brooklyn,-73.93052448,40.67342735,MASHA DELI GRILL MINI MARKET CORP,161,UTICA AVENUE
NY,10453,Bronx,Bronx,-73.91152656,40.84748914,TU PODEROSA GROCERY STORE CORP,27,EAST 175TH STREET
NY,10467,Bronx,Bronx,-73.86319006,40.88250768,PEACEFUL GROCERY MARKET LLC,3738,WHITE PLAINS ROAD
NY,10460,Bronx,Bronx,-73.88218001,40.84471574,180TH MINI MART CORP,906,E 180TH ST. FRONT 4
NY,10308,Richmond,Staten Island,-74.15022263,40.55059073,FRESH K&K MARKET INC,3978,AMBOY RD
NY,11234,Kings,Brooklyn,-73.92690937,40.62125634,M FINEST DELI CORP,5002,AVE M
NY,10013,New York,Manhattan,-74.004159,40.72122688,HAPPIER 365 LLC,365,CANAL STREET
NY,10031,New York,Manhattan,-73.95270635,40.8228896,SABA GROCERY STORE CORP,3430,BROADWAY
NY,11208,Kings,Brooklyn,-73.87600699,40.67072826,SANTIAGO MINI MARKET CORP,1129,BLAKE AVE
NY,11426,Queens,Queens,-73.72173756,40.74267809,NEW MAHARAJA SUPERMARKET INC,248-13,UNION TPKE
NY,11385,Queens,Queens,-73.92128424,40.70896682,IMPERIAL FOOD & DRINKS CORP,20-Oct,CYPRESS AVENUE
NY,11249,Kings,Brooklyn,-73.96374599,40.70531631,LONDON COOK INC,110,TAYLOR STREET
NY,11414,Queens,Queens,-73.85117451,40.66668307,FRESH & TASTY SUSHI INC,82-35,153RD AVE
NY,11216,Kings,Brooklyn,-73.95054935,40.68612007,GATES CONVENIENCE 1 CORP,392,GATES AVE
NY,11235,Kings,Brooklyn,-73.9538255,40.58718419,1506 DELI & JUICE BAR CORP,1506,SHEEPSHEAD BAY RD
NY,11214,Kings,Brooklyn,-74.00193193,40.60765816,D STOP 18TH DELI CORP,8501,18TH AVE
NY,11375,Queens,Queens,-73.84857394,40.72259032,TRADER JOES EAST INC,69-65,YELLOWSTONE BLVD
NY,10027,New York,Manhattan,-73.94620605,40.80814754,TRADER JOES EAST INC,121,W 125TH ST
NY,10470,Bronx,Bronx,-73.84693193,40.90189863,AHMED DELI DISCOUNT CORPORATION,857,E 241ST STREET
NY,11204,Kings,Brooklyn,-73.98783231,40.62125634,DOLLAR TREE STORES INC,6101,18TH AVE
NY,10314,Richmond,Staten Island,-74.16643382,40.57654161,LWIN FAMILY CO LLC,2795,RICHMOND AVE
NY,11223,Kings,Brooklyn,-73.98260192,40.60531488,MINI MARKET FRESH FRUIT CORP,222,KINGS HIGHWAY
NY,11369,Queens,Queens,-73.86750347,40.7614818,LAGUARDIA PHARMACY INC,101-22,ASTORIA BLVD
NY,10029,New York,Manhattan,-73.94767428,40.79638489,J&T NANDA CORP,1660,MADISON AVENUE
NY,11221,Kings,Brooklyn,-73.93083034,40.69465595,1077 BROADWAY MINI MARKET CORP,1077,BROADWAY
NY,10460,Bronx,Bronx,-73.8693728,40.84432531,MACCA INC,609,MORRIS PARK AVE
NY,10027,New York,Manhattan,-73.94599714,40.81306395,KARIM DELI GROCERY CORPORATION,201,WEST 131ST STREET
NY,11207,Kings,Brooklyn,-73.89116768,40.66987112,FIVE STAR DELI AND GROCERY I CORP,740,SUTTER AVE
NY,10040,New York,Manhattan,-73.92836245,40.86254534,BERRY ORGANIC MARKET CORP,25,SHERMAN AVENUE
NY,11369,Queens,Queens,-73.87182744,40.76262199,97 QUICK DELI & GROCERY INC,97-13,ASTORIA BLVD
NY,10024,New York,Manhattan,-73.97268194,40.78611467,YI 86 CORP,524,COLUMBUS AVENUE
NY,10453,Bronx,Bronx,-73.90785579,40.85372461,BROTHER FINEST DELI CORP,6,W BURNSIDE AVE
NY,11374,Queens,Queens,-73.86007844,40.71203427,METRO 8955 GROCERY CORP,89-55,METROPOLITAN AVE
NY,11235,Kings,Brooklyn,-73.95575334,40.57784453,GNN DELI CORP,1133,BRIGHTON BEACH AVE
NY,10459,Bronx,Bronx,-73.89006294,40.82846943,VYSE 2021 DELI CORP,1175,VYSE AVE FRONT 1
NY,10454,Bronx,Bronx,-73.91583855,40.80964803,ST ANNS MEAT CORP,345,SAINT ANNS AVENUE
NY,11210,Kings,Brooklyn,-73.94819798,40.63646165,CELESTIN CHRISTIANNE,2016,NOSTRAND AVE
NY,10040,New York,Manhattan,-73.9275598,40.86073971,DIAZ GARDEN CORP,98,NAGLE AVE STORE 8
NY,11229,Kings,Brooklyn,-73.94040826,40.60047383,DELI & GROCERY FOOD INC,2950,AVE U
NY,11220,Kings,Brooklyn,-74.00916551,40.64602897,EL QUETZALITO 6 CORP,4803,5TH AVENUE
NY,11435,Queens,Queens,-73.8108335,40.70226596,INTERNATIONAL MINI MARKET NYC CORP,144-17,JAMAICA AVENUE
NY,10453,Bronx,Bronx,-73.91032686,40.85211067,WEST IN & OUT DELI CORP,19,W TREMONT AVE
NY,10467,Bronx,Bronx,-73.8674572,40.86855672,GREEN LEAF DELI MART CORP,2901,WHITE PLAINS RD
NY,11212,Kings,Brooklyn,-73.91100395,40.6721168,ROYAL MART & DELI CORP,1540,E NEW YORK AVE
NY,11354,Queens,Queens,-73.83395582,40.76407248,NEARR INC,133-11,35TH AVE
NY,11206,Kings,Brooklyn,-73.94227164,40.71115472,JURI DELI INC,203,MAUJER ST
NY,11212,Kings,Brooklyn,-73.92410042,40.66399864,1078 DEMPANADA GROCERY CORP,1078,RUTLAND RD
NY,10310,Richmond,Staten Island,-74.10851688,40.64534836,RICHMOND GAS INC,1125,RICHMOND TERRACE
NY,11211,Kings,Brooklyn,-73.95224468,40.71013209,HOOPER GARDEN FOOD CORP,381,HOOPER STREET
NY,11420,Queens,Queens,-73.81565042,40.68199341,BUENO 111 GROCERY CORP,125-06,111TH AVE
NY,10040,New York,Manhattan,-73.92849447,40.85426415,HEIGHTS DELI AND MINI MART INC,494,AUDUBON AVE
NY,11435,Queens,Queens,-73.80709073,40.70214463,CONDE DELI GROCERY CORP,90-38,148TH STREET
NY,10454,Bronx,Bronx,-73.92476729,40.81007748,FAMOUS DELI MARKET CORP,333,E 138TH ST
NY,10031,New York,Manhattan,-73.94826981,40.82897842,BROADWAY MARKET PLACE INC,3620,BROADWAY
NY,11226,Kings,Brooklyn,-73.95561009,40.64069372,BIG WAVES SMOKE SHOP AND GROCERY CORP,1217,FLATBUSH AVE
NY,11207,Kings,Brooklyn,-73.88906851,40.66348969,EMAD FOOD INC,516,NEW LOTS AVE
NY,10467,Bronx,Bronx,-73.87691542,40.87142119,DUA BALKAN MARKET CORP,371,E 204 ST
NY,11206,Kings,Brooklyn,-73.94965739,40.70109247,PESCADO KOSHER INC,249,WALLABOUT ST
NY,11206,Kings,Brooklyn,-73.94965739,40.70109247,NUGGETS KOSHER INC,249,WALLABOUT ST
NY,10023,New York,Manhattan,-73.97828113,40.77843617,NFM COLUMBUS LLC,284,COLUMBUS AVE
NY,11209,Kings,Brooklyn,-74.03014759,40.62529767,HERNANDEZ AND FAMILY LLC,8313,3RD AVE
NY,11103,Queens,Queens,-73.91856116,40.76543144,NFM 30TH AVE LLC,3416,30TH AVE
NY,11206,Kings,Brooklyn,-73.94846393,40.70401724,FOODOO LLC,28,TROOP AVE
NY,11206,Kings,Brooklyn,-73.94965739,40.70109247,GLATT KOSHER WHOLESALERS LLC,249,WALLABOUT ST.
NY,11206,Kings,Brooklyn,-73.94965739,40.70109247,SUSHI TOKYO INC,249,WALLABOUT ST
NY,11355,Queens,Queens,-73.82829879,40.75796933,TIANCHENG FOOD TRADING INC,41-39,KISSENA BLVD
NY,10301,Richmond,Staten Island,-74.08652176,40.63458285,LAS CHAPINAS DELI & GROCERY LLC,74,CASTLETON AVE
NY,10467,Bronx,Bronx,-73.866388,40.87158929,BURKE 99 CENTS AND UP CORP,717,BURKE AVENUE
NY,11419,Queens,Queens,-73.81412768,40.69070627,ELEVATED CONVENIENCE CORP,132-01,LIBERTY AVE
NY,11223,Kings,Brooklyn,-73.97862362,40.59626682,AVE U DELI & GROCERY INC,156,AVE U
NY,11211,Kings,Brooklyn,-73.96035115,40.70592814,SIG MEAT LLC,58,LEE AVE
NY,11206,Kings,Brooklyn,-73.95328956,40.6995897,SIG MEAT LLC,285,LEE AVE
NY,11205,Kings,Brooklyn,-73.95646304,40.69443483,SIG MEAT LLC,684,MYRTLE AVE
NY,11420,Queens,Queens,-73.82087955,40.66987745,BUY BUY CONVENIENCE AND GRILL CORP,135-21,LEFFERTS BLVD
NY,11236,Kings,Brooklyn,-73.89970825,40.635996,TWINZ DELI CORP,9101,AVENUE L
NY,10473,Bronx,Bronx,-73.8478588,40.81991394,CASTLE HILL DEALS INC,650,CASTLE HILL AVE
NY,10029,New York,Manhattan,-73.94630643,40.79983014,D&R CONVENIENCE CORP,5,E 115TH STREET
NY,10033,New York,Manhattan,-73.93518113,40.85085586,HOME THREAD INC,4280,BROADWAY
NY,11385,Queens,Queens,-73.90594648,40.70217866,L&C GROCERY INC,17-02,MADISON ST
NY,11362,Queens,Queens,-73.72780899,40.77726489,JIA HE SUPERMARKET INC,249-26,NORTHERN BLVD
NY,10455,Bronx,Bronx,-73.90608906,40.81550979,HAPPY MARKET & DISCOUNT INC,784,E 152ND STREET
NY,10468,Bronx,Bronx,-73.90243731,40.86040138,SUGAR KING DELI GROCERY INC,2366,JEROME AVE
NY,10458,Bronx,Bronx,-73.88400852,40.86801558,YUMMY GOURMET DELI 1 CORP,379,BEDFORD PARK BLVD
NY,11429,Queens,Queens,-73.73008116,40.70520172,A&A FAMILY DELI CORP,227-02A,112TH AVE.
NY,11212,Kings,Brooklyn,-73.9181051,40.66847181,BIG BITE GOURMET DELI CORP,1500,PITKIN AVENUE
NY,10029,New York,Manhattan,-73.94830895,40.79551619,METRO MARKETPLACE LLC,1630,MADISON AVENUE
NY,11373,Queens,Queens,-73.87948615,40.74167461,EL NOPALITO DELI CORP,85-25,WHITNEY AVE. STORE #6
NY,11373,Queens,Queens,-73.88381817,40.74562337,BLUES DELI LLC THE,81-20,BAXTER AVENUE
NY,11208,Kings,Brooklyn,-73.87201201,40.68359703,CHANGS FISH MARKET INC,3346,FULTON STREET
NY,11432,Queens,Queens,-73.78727759,40.71134859,DOLLAR TREE STORES INC,175-06,HILLSIDE AVE
NY,11422,Queens,Queens,-73.7391534,40.66081561,ASG RETAIL I LLC,143-60,243RD ST
NY,11212,Kings,Brooklyn,-73.92470107,40.66611356,ASG RETAIL II LLC,1134,EAST NEW YORK AVE
NY,10011,New York,Manhattan,-73.99924142,40.73885921,SONS KITCHEN LLC,77,7TH AVE
NY,10003,New York,Manhattan,-73.98829169,40.73189164,SONS KITCHEN LLC,84,3RD AVE
NY,10457,Bronx,Bronx,-73.88959716,40.84453364,PACO MEAT & FRUIT MARKET CORP,744,EAST TREMONT AVENUE
NY,10461,Bronx,Bronx,-73.82985045,40.84208809,CROSBY DELI & GROCERY INC,1450,CROSBY AVE
NY,10025,New York,Manhattan,-73.96629534,40.80427796,SONS KITCHEN LLC,2840,BROADWAY
NY,10025,New York,Manhattan,-73.97130479,40.79577158,SONS KITCHEN LLC,2589,BROADWAY
NY,11212,Kings,Brooklyn,-73.90634537,40.66835572,STONE AVE 99 INCORPORATED,439,MOTHER GASTON BLVD
NY,11208,Kings,Brooklyn,-73.98872801,40.69207064,EL NOVILLO MEAT CORP,33-81,FULTON STREET
NY,11368,Queens,Queens,-73.8697608,40.75174639,EL PRIMO FRUTAS Y VEGETABLES INC,97-02,37TH AVE
NY,11377,Queens,Queens,-73.9048596,40.74508781,H MART WOODSIDE LLC,59-18,WOODSIDE AVE
NY,10472,Bronx,Bronx,-73.86763523,40.8326849,EL MECIA MEAT PRODUCT CORP,1299,SAINT LAWRENCE ST
NY,10030,New York,Manhattan,-73.9435617,40.81506144,7TH AVE MIKE FOOD CORP 1,2299,ADAM CLAYTON POWELL JR BLVD
NY,10011,New York,Manhattan,-74.00192019,40.74028292,GOURMET DELI ON 8TH AVE CORP,100,8TH AVE
NY,11106,Queens,Queens,-73.93500511,40.75891455,36 AVE DELI & GROCERY CORP,23-02,36TH AVE
NY,10011,New York,Manhattan,-74.00475353,40.74720097,GALLERIA GOURMET MARKETPLACE INC,203,10TH AVE
NY,11203,Kings,Brooklyn,-73.92975419,40.6568112,EL TRONCO FOOD CORP,853,CLARKSON AVENUE
NY,11223,Kings,Brooklyn,-73.96845551,40.59079752,GIUAANI USA INC,389,AVENUE X
NY,11233,Kings,Brooklyn,-73.92267936,40.66939943,JAS CROWN FRIED CHICKEN & DELI INC,578,RALPH AVENUE
NY,11216,Kings,Brooklyn,-73.94480448,40.68852069,EL PATIO DELI MARKET CORP,279,TOMPKINS AVE
NY,11354,Queens,Queens,-73.82550183,40.76424901,14108 BABY STOP INC,141-08,NORTHERN BLVD
NY,11224,Kings,Brooklyn,-73.98592048,40.5763,AM DELI AND MINI MART CORP,1902,MERMAID AVE
NY,11222,Kings,Brooklyn,-73.95011559,40.72410568,WHOLESOME GOURMET DELI INC,101,NASSAU AVE
NY,11214,Kings,Brooklyn,-73.99695492,40.59846238,2207 BATH AVENUE CORP,2207,BATH AVENUE
NY,10025,New York,Manhattan,-73.96525071,40.80571139,BRUTUS 123 INC,2892,BROADWAY
NY,11418,Queens,Queens,-73.8356146,40.69799249,DOMINGUEZ MATEO DELI GROCERY CORP,112-27,JAMAICA AVE
NY,10306,Richmond,Staten Island,-74.11665546,40.57354927,FRUTAS LOCAS MARY CORP,48,NEW DORP PLAZA S
NY,10009,New York,Manhattan,-73.97682813,40.7228468,ABC EIGHT WINGS INC,85,AVENUE D
NY,11203,Kings,Brooklyn,-73.93065546,40.65365567,26 SINGH INC,794,UTICA AVENUE
NY,11226,Kings,Brooklyn,-73.95172609,40.64532153,F & C DELI GROCERY CORP,1017,ROGERS AVE
NY,11216,Kings,Brooklyn,-73.94320052,40.68048307,ALEJANDRO 04 DELI GROCERY CORP,493,TOMPKINS AVE
NY,10455,Bronx,Bronx,-73.91626544,40.81974902,J DELI & GRILL PR CORP,689,MELROSE AVE
NY,11691,Queens,Queens,-73.7539265,40.60464181,JUICE BAR DELI & GRILL 2113 CORP,2113,MOTT AVE
NY,10003,New York,Manhattan,-73.98978278,40.73484177,TARGET CORPORATION,10,UNION SQUARE EAST
NY,11234,Kings,Brooklyn,-73.92194871,40.60994538,TARGET CORPORATION,5100,KINGS PLAZA SUITE 2201
NY,10467,Bronx,Bronx,-73.86184032,40.87609993,MG SUSHI INC,801,E GUN HILL ROAD
NY,10452,Bronx,Bronx,-73.91248847,40.84322958,LA CHIQUITA DE MOUNT EDEN CORP,120,E MOUNT EDEN AVE
NY,11372,Queens,Queens,-73.893827,40.75095141,ACARE PHARMACY LLC,72-03,35TH AVE
NY,10455,Bronx,Bronx,-73.90966712,40.81197883,LOS HERNANDEZ MEAT & DELI GROCERY INC,501 B,JACKSON AVE
NY,10460,Bronx,Bronx,-73.88791005,40.83203308,EL CAMPITO GROCERY STORE INC,1465,BRYANT AVE
NY,11220,Kings,Brooklyn,-74.02447623,40.64619828,SAEDICO CORPORATION,80,58TH ST SUITE 401
NY,11206,Kings,Brooklyn,-73.94115056,40.70381192,YR MARKET FRESH CORP,108,MOORE ST  STE 26
NY,11249,Kings,Brooklyn,-73.96669818,40.70693925,SUSHI NATION BK INC,50,DIVSION AVE
NY,11230,Kings,Brooklyn,-73.97165373,40.61686032,SUSHI NATION BK INC,315,AVE M
NY,11236,Kings,Brooklyn,-73.89702956,40.64018862,BROOKLYN TO GO DELI INC,1680,ROCKAWAY PKWY
NY,11221,Kings,Brooklyn,-73.92310625,40.68723926,BELLA DELI FOOD CORP,951,PUTNAM AVENUE
NY,11229,Kings,Brooklyn,-73.95768109,40.60990422,KWAY SMASH BURGER & GRILL INC,1622,E 16TH ST.
NY,10035,New York,Manhattan,-73.93391513,40.80259931,125 FRESH FOOD INC,2425,2ND AVE
NY,11237,Kings,Brooklyn,-73.91952198,40.69705715,WILSON AVE DELI GROCERY CORP,276,WILSON AVE
NY,10472,Bronx,Bronx,-73.87875035,40.82855334,LA HACIENDA MEXICANA MEAT MKT CO,1528-1528A,WESTCHESTER AVE
NY,10451,Bronx,Bronx,-73.92121881,40.82135663,AAA MORRIS GAS INC,699,MORRIS AVENUE
NY,10025,New York,Manhattan,-73.96435041,40.80262987,WESTSIDE DELI AND CONVENIENCE CORP,996,AMSTERDAM AVE
NY,10459,Bronx,Bronx,-73.89683066,40.83050342,PROSPECT GOURMET DELI NY INC,823,FREEMAN STREET
NY,11205,Kings,Brooklyn,-73.97357746,40.6931685,EAGLES CONVENIENCE #1 CORP,322,MYRTLE AVE
NY,10029,New York,Manhattan,-73.94681345,40.79127691,EMIS DELI CORP,1665,LEXINGTON AVE
NY,10029,New York,Manhattan,-73.94295585,40.7910268,JS SUSHI NY INC,235,E 106TH ST
NY,10007,New York,Manhattan,-74.00969407,40.71518524,MK MARKET LLC,82,W BROADWAY
NY,10027,New York,Manhattan,-73.95776215,40.81599062,BROADWAY GARDEN MARKET CORP,3210,BROADWAY
NY,11435,Queens,Queens,-73.80607711,40.69807451,SUTPHIN DELI INC,95-11,SUTPHIN BLVD
NY,10314,Richmond,Staten Island,-74.19365623,40.60090378,RD AMERICA LLC,1801,SOUTH AVE
NY,10451,Bronx,Bronx,-73.92208013,40.81850192,PIVI GNAMA,598,MORRIS AVE
NY,10031,New York,Manhattan,-73.94781375,40.82549851,AMSTERDAM GOURMET DELI CORP,501,W 145TH STREET STORE #4
NY,11372,Queens,Queens,-73.87259916,40.75706672,GALINDO DELI CORP,95-13,NORTHERN BLVD
NY,10452,Bronx,Bronx,-73.92163221,40.83571827,HANINI GOURMET DELI CORP,24,EAST 167TH STREET
NY,11237,Kings,Brooklyn,-73.91672636,40.69908893,CHOLULA MINI MARKET CORP,1475,MYRTLE AVENUE
NY,10027,New York,Manhattan,-73.95832348,40.81086961,COLUMBIA CAFETERIA & MARKETPLACE INC,1260,AMSTERDAM AVENUE
NY,11368,Queens,Queens,-73.86599045,40.75745535,ROMERITOS JUICE CORP,102-14,NORTHERN BLVD
NY,10468,Bronx,Bronx,-73.90357692,40.8610729,MI BEBE DELI GROCERY CORP,25,W 184TH ST
NY,11223,Kings,Brooklyn,-73.97394676,40.59026618,DELI & GRILL AVE X INC,237,AVENUE X
NY,11211,Kings,Brooklyn,-73.95051817,40.7111424,GREAT TOKYO MART INC,517,GRAND STREET
NY,11207,Kings,Brooklyn,-73.88833694,40.66547536,LOYAL DELI CORP,571,VAN SICLEN AVENUE
NY,11229,Kings,Brooklyn,-73.94417215,40.60006035,SAFIR BAKERY INC,2718,AVENUE U
NY,10007,New York,Manhattan,-74.00758594,40.71512003,TRIBECA DELI GRILL CORP,165,CHURCH ST FNT 1
NY,11385,Queens,Queens,-73.91195605,40.70194636,281 KG DELI GROCERY CORP,281,SAINT NICHOLAS AVE.
NY,11423,Queens,Queens,-73.773658,40.70994458,LA FLACA MAS BELLA GROCERY CORP,185-11,JAMAICA AVE
NY,11435,Queens,Queens,-73.80218791,40.69778487,KARMA 1 DELI & GROCERY CORP,104-01,150TH STRRET
NY,10461,Bronx,Bronx,-73.82987115,40.84389582,AL OSRAAH MARKET CORP,3006,MIDDLETOWN RD
NY,10013,New York,Manhattan,-73.99671922,40.71782759,HO FOODS MART INC,169,HESTER STREET
NY,11237,Kings,Brooklyn,-73.92607403,40.70227481,RUFFTONE RECORDS LLC,95,STARR STREET
NY,11224,Kings,Brooklyn,-73.97298285,40.57961424,ANI EDI INC,532,NEPTUNE AVE
NY,11368,Queens,Queens,-73.86129566,40.75797456,107 MINI MARKET INC,107-15,NORTHERN BLVD
NY,10309,Richmond,Staten Island,-74.20668456,40.54288504,MYM270 LLC,655,ROSSVILLE AVE
NY,11234,Kings,Brooklyn,-73.91582824,40.62596856,L & T SUSHI LLC,2149,RALPH AVE
NY,10014,New York,Manhattan,-74.00198993,40.73230327,ELARISTEO ESTABLISHMENT,5,JONES STREET FRONT 1
NY,10308,Richmond,Staten Island,-74.15040485,40.55041475,HERO FARM LLC,3984,AMBOY RD  3 FL
NY,10467,Bronx,Bronx,-73.88186083,40.88240773,KWG FOOD CORP,3515,JEROME AVENUE
NY,10305,Richmond,Staten Island,-74.07254318,40.61396659,PALM GRILL CORP,160,ST. MARYS AVE
NY,10312,Richmond,Staten Island,-74.18405534,40.56550121,ARDEN MINIMART INC,1307,ARTHUR KILL RD
NY,11102,Queens,Queens,-73.91819521,40.77022941,ASTORIA GOURMET & MARKET PLACE INC,25-08,31ST STREET
NY,10019,New York,Manhattan,-73.97458873,40.68092044,GRAND GOLDEN OWLS INC,13-66,6TH AVE
NY,11237,Kings,Brooklyn,-73.92646731,40.70357094,YOUGH TO GO LLC,203,KNICKERBOCKER AVE. STORE LE
NY,11420,Queens,Queens,-73.82529556,40.67147538,LA BODEGA FOOD CORP,114-27,135TH AVE.
NY,11224,Kings,Brooklyn,-73.99101559,40.57607105,KING 24 FOOD CORP,2327,MERMAID AVENUE
NY,10314,Richmond,Staten Island,-74.1908664,40.59149228,ARGJIROS CORNER CORP,4112,VICTORY BLVD
NY,11224,Kings,Brooklyn,-73.99357844,40.57553888,MAIN STOP DELI & GROCERY CORP,2706,MERMAID AVE
NY,11416,Queens,Queens,-73.84430437,40.68462654,BELLA ROSA DELI CORP,96-18,101ST AVE
NY,10002,New York,Manhattan,-73.99381104,40.71363995,LAN LAN GINSENG INC,87,E BROADWAY
NY,11213,Kings,Brooklyn,-73.93091441,40.67250757,DELI & GROCERY ON 188 UTICA CORP,188,UTICA AVE
NY,10301,Richmond,Staten Island,-74.08061285,40.63759585,LA HERRADURA FRUTAS &VERDURSA CORP,119,VICTORY BLVD
NY,11209,Kings,Brooklyn,-74.03088512,40.61585013,DELI MART 95 CORP,9429,5TH AVE
NY,11206,Kings,Brooklyn,-73.94478914,40.70733672,M&M DETOX DELI CORP,134,MANHATTAN AVENUE
NY,11103,Queens,Queens,-73.9168484,40.76185681,GB LICENSE LLC,30-88,STEINWAY ST
NY,11375,Queens,Queens,-73.84110533,40.71854509,SHERPA ORGANICS LLC,72-48,AUSTIN STREET
NY,11209,Kings,Brooklyn,-74.02330352,40.62745194,ALPHA BAKERY AND MEDITTERANEAN MARKETPLA,7717,5TH AVENUE
NY,11216,Kings,Brooklyn,-73.95435951,40.68641696,NATURE MARKET 1 CORP,1091,BEDFORD AVE
NY,11222,Kings,Brooklyn,-73.95109895,40.72455466,MR PLUM INC,658,MANHATTAN AVE
NY,10009,New York,Manhattan,-73.9762424,40.72677943,GIO AVENUE C INC,188,AVENUE C
NY,10451,Bronx,Bronx,-73.91748702,40.82077853,2023 CONVENIENCE CORP,720,COURTLANDT AVENUE
NY,11207,Kings,Brooklyn,-73.89142165,40.65991133,KING OF EAST CORP,540,HEGEMAN AVENUE
NY,10029,New York,Manhattan,-73.94377292,40.79311632,1968 3RD AVE DELI GROCERY CORP,1968,3RD AVE
NY,10468,Bronx,Bronx,-73.90414186,40.86292006,CASARRUBIAS FISH MARKET INC,81B,W FORDHAM ROAD
NY,10301,Richmond,Staten Island,-74.08457129,40.64416211,MOMMAS KITCHEN DELI LLC,145,WESTERVELT AVE
NY,11412,Queens,Queens,-73.76081332,40.69221807,ULASI EUNICE,190-07,LINDEN BLVD
NY,11212,Kings,Brooklyn,-73.92085076,40.66039982,TRAPPADON LLC,256,EAST 96TH ST
NY,10459,Bronx,Bronx,-73.89427476,40.82896585,ZAID DELI GROCERY CORP,1236,INTERVALE AVE
NY,11235,Kings,Brooklyn,-73.95958882,40.57991381,MB PRIME CORP,3119,CONEY ISLAND AVE
NY,10305,Richmond,Staten Island,-74.0938317,40.58513922,BACK TO NATURE HEALTH FOOD LLC,1807,HYLAN BLVD
NY,11208,Kings,Brooklyn,-73.88083991,40.68330358,BRANDO GROCERY DELI INC,216,RIDGEWOOD AVE
NY,11216,Kings,Brooklyn,-73.9512904,40.68971285,NOSTRAND DELICATESSEN CORP,263,NOSTRAND AVE
NY,10458,Bronx,Bronx,-73.89741898,40.85904213,FERRERA DELI GROCERY CORP,2381,VALENTINE AVE
NY,10023,New York,Manhattan,-73.9823256,40.77620411,PINK & WHITE MARKETS INC,2015,BROADWAY
NY,11237,Kings,Brooklyn,-73.9221031,40.70108491,KNICKERBOCKER FRESH MARKET INC,341,KNICKERBOCKER AVE
NY,11249,Kings,Brooklyn,-73.96554785,40.71691552,DOMINO CONVENIENCE INC,234,KENT AVENUE
NY,10012,New York,Manhattan,-74.0018352,40.72960714,POP UP GROCER INC,205,BLEECKER STREET
NY,10461,Bronx,Bronx,-73.85594189,40.85616936,BESA MEAT MARKET INC,2133B,WILLIAMSBRIDGE ROAD
NY,10472,Bronx,Bronx,-73.86977622,40.83262145,MI RANCHITO MEAT MARKET INC,1733,E 172ND STREET
NY,11209,Kings,Brooklyn,-74.02981106,40.62695766,KHS FISH CORP,8102,3RD AVE
NY,10458,Bronx,Bronx,-73.88846527,40.85430824,ENZOS ARTHUR AVE FOOD PROD LLC,2344,ARTHUR AVENUE
NY,11225,Kings,Brooklyn,-73.95051113,40.66820673,PRESIDENTAIL GOURMET DELI CORP,835,NOSTRAND AVE
NY,10032,New York,Manhattan,-73.93624969,40.84090947,KAHTAN 170 DELI CORP,2210,AMSTERDAM AVE
NY,10467,Bronx,Bronx,-73.86216554,40.88435778,3826 SNACK & CONVENIENCE STORE INC,3826,WHITE PLAINS ROAD
NY,11231,Kings,Brooklyn,-74.00680592,40.67299724,PRIME NOW LLC,55,BAY ST
NY,10305,Richmond,Staten Island,-74.06540649,40.61333992,K&N BAGEL INC,1231,BAY ST
NY,10033,New York,Manhattan,-73.93872978,40.84596929,PACES ITALIAN MARKET 2 INC,4131,BROADWAY
NY,11221,Kings,Brooklyn,-73.92833153,40.69322331,1153 GOURMET MARKET CORP,1153,BROADWAY
NY,11368,Queens,Queens,-73.86971486,40.75706379,CUMANDA CORP,98-18,NORTHERN BLVD
