"state","zip_code","county","borough","longitude","latitude","entity_name","street_number","street_name"
"NY",11205,"Kings","Brooklyn",-73.955486796,40.690346184,"SKILLMART INC","1010","BEDFORD AVE"
"NY",10469,"Bronx","Bronx",-73.858823252,40.865713996,"ARDENT PHARMACY INC","987-989","ALLERTON AVE"
"NY",10467,"Bronx","Bronx",-73.864832322,40.871259212,"BALDE FAMILY GENERAL MERCHANDISING LLC","756","BURKE AVENUE"
"NY",10467,"Bronx","Bronx",-73.872836453,40.878631389,"ESTRELLA MEATS FRUITS & GROCERY 2 CORP","350","E GUN HILL RD"
"NY",11355,"Queens","Queens",-73.828313124,40.754958503,"HUA-TE NY INC","42-14","MAIN  ST"
"NY",10452,"Bronx","Bronx",-73.924682128,40.841954234,"ALEX CANDY STORE CORP","1373A","OGDEN AVE"
"NY",10026,"New York","Manhattan",-73.948736514,40.797872758,"LUXURY GREENS LLC","1330","5TH AVE STORE 5"
"NY",10001,"New York","Manhattan",-73.9926754,40.7482307,"HUDSON GROUP (HG) RETAIL LLC",NA,"MAIN AMTRAK LEVEL B"
"NY",10001,"New York","Manhattan",-73.9926754,40.7482307,"HUDSON GROUP (HG) RETAIL LLC",NA,"33RD ST & 8TH AVE"
"NY",10001,"New York","Manhattan",-73.9926754,40.7482307,"HUDSON GROUP (HG) RETAIL LLC",NA,"33RD ST & 8TH AVE"
"NY",11419,"Queens","Queens",-73.819525202,40.687909397,"124 LIBERTY LLC","124-16","LIBERTY AVE"
"NY",11420,"Queens","Queens",-73.815231069,40.682090093,"SINGHS FISH & GROCERY","125-20","111TH AVE"
"NY",10462,"Bronx","Bronx",-73.863157031,40.845684139,"SANAA DISCOUNT INC","778","MORRIS PARK AVE"
"NY",10033,"New York","Manhattan",-73.935993171,40.84400428,"CRH RX CORP","174","AUDUBON AVE"
"NY",10013,"New York","Manhattan",-74.004957962,40.726273032,"FRAICHE CORP","30","VANDAM ST"
"NY",10010,"New York","Manhattan",-73.980010652,40.739433752,"PITKIN SUPER DEALS INC","441","2ND AVE"
"NY",11229,"Kings","Brooklyn",-73.956058358,40.598436059,"NEW STAR GROCERY STORE INC","2115","E 15TH STREET"
"NY",11226,"Kings","Brooklyn",-73.958722546,40.651107855,"ADAM DELI GROCERY II CORP","863","FLATBUSH AVE"
"NY",10017,"New York","Manhattan",-73.9774131,40.752368369,"1923 GCT LLC","89","E 42ND ST"
"NY",10011,"New York","Manhattan",-73.998789293,40.734579508,"CW PROJECTS LLC","434","6TH AVENUE STORE # 4"
"NY",11356,"Queens","Queens",-73.835518041,40.787378867,"AI MART CP INC","132-19","14TH AVE"
"NY",11355,"Queens","Queens",-73.827736114,40.754566105,"YING FU MARKET INC","42-35","MAIN ST #1P4"
"NY",11220,"Kings","Brooklyn",-74.007115212,40.641489076,"WONDER 7TH GROCERY INC","5120","7TH AVENUE"
"NY",10312,"Richmond","Staten Island",-74.168832383,40.559651233,"ALDI INC","3231","RICHMOND AVE"
"NY",10455,"Bronx","Bronx",-73.903659812,40.81244499,"JOSE MINI MARKET INC","549","SOUTHERN BLVD"
"NY",10303,"Richmond","Staten Island",-74.146961064,40.63137237,"PURNIMA CONVENIENCE STORE INC","280","MORNING STAR ROAD"
"NY",10305,"Richmond","Staten Island",-74.067118379,40.617185473,"NEW NAN FONG HONG TRADING INC","21 & 27","SYLVATON TERRACE"
"NY",11368,"Queens","Queens",-73.862480611,40.747044562,"ERIC CONVENIENCE STORE INC","102-06","43RD AVE"
"NY",11208,"Kings","Brooklyn",-73.882777474,40.6737172,"YOLANDA GROCERY STORE INC","2428","PITKIN"
"NY",11238,"Kings","Brooklyn",-73.959124626,40.680199303,"ZEENA BAKERY LLC","999","ATLANTIC AVE"
"NY",11215,"Kings","Brooklyn",-73.988090555,40.666816756,"513 DELI & GRILL INC","513","5TH AVE"
"NY",10452,"Bronx","Bronx",-73.929434332,40.833118284,"LA FARMA LLC","1003","OGDEN AVE"
"NY",11373,"Queens","Queens",-73.890044752,40.74624057,"G MART NY INC","75-01","BROADWAY"
"NY",10459,"Bronx","Bronx",-73.892223543,40.82082354,"CASITA MARIA DELI CORP","1020-1022","EAST 163RD STREET"
"NY",11375,"Queens","Queens",-73.852272711,40.710797608,"NEW ARIA CORP","100-27","METROPOLITAN AVENUE"
"NY",10029,"New York","Manhattan",-73.945715927,40.799588031,"YUMMILICIOUS DELI #3 CORP","23","E 115TH ST"
"NY",10305,"Richmond","Staten Island",-74.067660297,40.617130511,"ATJ ENTERPRISE INC","1077","BAY ST"
"NY",11362,"Queens","Queens",-73.736468923,40.769202668,"CLOUD MUNCHIES CORP","251-16","NORTHERN BLVD"
"NY",10460,"Bronx","Bronx",-73.884575895,40.846262155,"80 BRONX FINEST MARKET INC","2109","SOUTHERN BLVD"
"NY",11354,"Queens","Queens",-73.825124313,40.764310486,"CLOUD GROCERY INC","14118","NORTHERN BLVD"
"NY",11223,"Kings","Brooklyn",-73.961256311,40.596595854,"TREE OF LIFE RX INC","2472","CONEY ISLAND AVENUE"
"NY",10461,"Bronx","Bronx",-73.844577369,40.842040736,"77 SWIPER DELI CORP","2742","E TREMONT AVE"
"NY",10475,"Bronx","Bronx",-73.831540073,40.869229911,"MUNCHIES DELI CORP","500","BAYCHESTER AVE"
"NY",10466,"Bronx","Bronx",-73.857756487,40.892324443,"4158 MEAT MARKET INC","4158","WHITE PLAINS RD"
"NY",10310,"Richmond","Staten Island",-74.109521701,40.630129208,"A&H PELTON CONVENIENCE CORP","607","FOREST AVE"
"NY",11374,"Queens","Queens",-73.865554381,40.720505515,"SAMARKAND UZ INC","62-02A","WOODHAVEN BLVD"
"NY",10458,"Bronx","Bronx",-73.896114423,40.861061579,"LA TIA DELI GROCERY INC","253","E 188TH STREET"
"NY",10022,"New York","Manhattan",-73.967080644,40.758510838,"METZ CULINARY MANAGEMENT LLC","231","E 55TH ST"
"NY",11101,"Queens","Queens",-73.939499363,40.748682849,"EAST ASIAN FOOD CORPORATION","2802","42ND RD"
"NY",11216,"Kings","Brooklyn",-73.937960991,40.681832685,"SAJOMA GRILL AND DELI CORP","442","MARCUS GARVEY BLVD"
"NY",11230,"Kings","Brooklyn",-73.965556228,40.633043638,"GARCIAS GROCERY NY CORP","1201","FOSTER AVE"
"NY",11373,"Queens","Queens",-73.874227011,40.742247012,"SAHUAYO BAKERY CORP","90-43","CORONA AVE"
"NY",10306,"Richmond","Staten Island",-74.110675051,40.570838307,"DORP LANE DELI INC","360","NEW DORP LANE"
"NY",11235,"Kings","Brooklyn",-73.960840988,40.588223757,"2800 CIA RETAIL CORP","2800","CONEY ISLAND AVENUE"
"NY",10458,"Bronx","Bronx",-73.883906865,40.866966692,"FRESH & TASTY SUSHI INC","2870","WEBSTER AVE"
"NY",10460,"Bronx","Bronx",-73.886980663,40.837266865,"JIMENEZ AMABLE","931","EAST 174TH STREET"
"NY",10002,"New York","Manhattan",-73.991059928,40.7108883,"NY HARVEST TRADING INC","227","CHERRY ST"
"NY",11222,"Kings","Brooklyn",-73.951341693,40.723202364,"NICK&SONS BAKERY LLC","892","LORIMER ST"
"NY",10305,"Richmond","Staten Island",-74.094840546,40.58384195,"AOK 1139 INC","1854","HYLAN BLVD"
"NY",10002,"New York","Manhattan",-73.98301833,40.719884471,"BONNES SAVEURS LLC","196","STANTON ST"
"NY",11221,"Kings","Brooklyn",-73.926608541,40.698782862,"MR AVOCADO DELI & GRILL CORPORATION","176","CENTRAL AVE"
"NY",10462,"Bronx","Bronx",-73.86008322,40.846642107,"MACCA HALAL MARKET 2 INC","869","MORRIS PARK AVE"
"NY",11226,"Kings","Brooklyn",-73.949882488,40.652208398,"BISMILLAH BROOKLYN LLC","1404","NOSTRAND AVE"
"NY",10002,"New York","Manhattan",-73.99019961,40.721886782,"MANHATTAN 1 DELI GRILL AND JUICE BAR COR","59","STANTON ST"
"NY",11238,"Kings","Brooklyn",-73.959124626,40.680199303,"GERMANN AMY","999","ATLANTIC AVE"
"NY",11238,"Kings","Brooklyn",-73.959124626,40.680199303,"RIRONY LLC","999","ATLANTIC AVE"
"NY",11204,"Kings","Brooklyn",-73.982373846,40.61247604,"SUN FAR INC","1407","WEST 8TH STREET"
"NY",11223,"Kings","Brooklyn",-73.97265461,40.604119282,"PINEAPPLE MINIMARKET CORP","470","KINGS HWY"
"NY",11237,"Kings","Brooklyn",-73.921202968,40.702460171,"ABU ALI DELI & GRILL CORPORATION","1537","DEKLAB AVE"
"NY",11435,"Queens","Queens",-73.799503769,40.693313,"SUTPHIN BANGLA BAZAR CORP","107-57","SUTPHIN BLVD"
"NY",10306,"Richmond","Staten Island",-74.127399881,40.564864776,"GUYON BAGEL DELI & GROCERY INC","99","GUYON AVENUE"
"NY",10468,"Bronx","Bronx",-73.908548473,40.862622583,"ALLYSSIA DISCOUNTS CORP","172","W FORDHAM RD"
"NY",11223,"Kings","Brooklyn",-73.977259208,40.596412039,"J & B FRUIT MARKET CORP","182","AVENUE U"
"NY",10454,"Bronx","Bronx",-73.91844683,40.806469825,"FOOD STOP DELI CORP","545","E 137TH ST"
"NY",11103,"Queens","Queens",-73.904632783,40.764803384,"RAPHAEL DELI CORP","48-19","25TH AVE"
"NY",11375,"Queens","Queens",-73.849968861,40.734010786,"A&R INTERNATIONAL MARKET LLC","63-37","108TH STREET"
"NY",10457,"Bronx","Bronx",-73.89431684,40.850991309,"CARNICERIA EL TORITO CORP","513","EAST 180TH STREET"
"NY",11208,"Kings","Brooklyn",-73.868712389,40.668298342,"LINDEN DELI AND GRILL 2 INC","2602","LINDEN BLVD"
"NY",11212,"Kings","Brooklyn",-73.922844731,40.665168371,"ALEX DELI GROCERY 2 INC","2","SUTTER AVE"
"NY",10466,"Bronx","Bronx",-73.850449898,40.898522316,"WICKHAM MINI MARKET CORP","4400","WICKHAM AVE  STORE A"
"NY",11377,"Queens","Queens",-73.918519669,40.7355821,"GAZA DELI & GRILL CORP","50-60","48TH ST"
"NY",10029,"New York","Manhattan",-73.936429198,40.795666264,"LETS EAT FOOD COURT LLC","339","E 115TH ST"
"NY",10474,"Bronx","Bronx",-73.889128831,40.818809116,"DREAMS 1 99C CORPORATION","874","HUNTS POINT AVE"
"NY",11220,"Kings","Brooklyn",-74.004362009,40.640743925,"DAFU GROCERY INC","5024","8TH AVENUE, 1 FLOOR"
"NY",11201,"Kings","Brooklyn",-73.982366805,40.689607025,"DOLLAR TREE STORES INC","559","FULTON ST"
"NY",11229,"Kings","Brooklyn",-73.955104833,40.598861398,"LUCKY 7 BAGEL AND GRILL CORP","1608","AVENUE U"
"NY",11104,"Queens","Queens",-73.925278082,40.740119601,"LOVE DELI & GROCERY INC","39-43","48TH AVE"
"NY",10040,"New York","Manhattan",-73.929629798,40.863162503,"SANTOS GOURMET DELI AND GROCERY CORP","4672","BROADWAY"
"NY",11358,"Queens","Queens",-73.789783946,40.766692371,"BAYSIDE BAGELS INC","33-31","FRANCIS LEWIS BLVD"
"NY",11208,"Kings","Brooklyn",-73.875113397,40.681156684,"HOMEMADE TASTY CREATIONS LLC","276","CHESTNUT ST"
"NY",10044,"New York","Manhattan",-73.9495079,40.762635698,"579 BREAD AND BUTTER CORP","579","MAIN STREET"
"NY",11385,"Queens","Queens",-73.901839849,40.704819383,"SAM SPOLEM FAMILY INC","66-91","FOREST AVE"
"NY",11377,"Queens","Queens",-73.912634064,40.744376267,"JS INTERNATIONAL 5127 CORP","51-27","43RD AVE"
"NY",10463,"Bronx","Bronx",-73.902247378,40.875698142,"3001 PLAZA LIBRE FOOD CORP","3001","KINGSBRIDGE TERRACE"
"NY",11229,"Kings","Brooklyn",-73.954057514,40.610366105,"K & H GRILL CORP","1918","KINGS HWY"
"NY",10458,"Bronx","Bronx",-73.891833869,40.860365043,"FRESH & TASTY SUSHI INC","421","E 189TH STREET"
"NY",10012,"New York","Manhattan",-74.000717725,40.726210294,"PARTNERS IN CHOCOLATE LLC","456","W BROADWAY"
"NY",11226,"Kings","Brooklyn",-73.948740202,40.644549937,"JBD MINI MARKET CORP","1699","NOSTRAND AVE"
"NY",10467,"Bronx","Bronx",-73.864669545,40.879833061,"CHULAMEX LLC","3622","WHITE PLAINS ROAD"
"NY",11412,"Queens","Queens",-73.753256534,40.707008737,"27 & 7 DELI GROCERY INC","204-19","HOLLIS AVE"
"NY",10128,"New York","Manhattan",-73.947582326,40.779000651,"EAST SIDE CONVENIENCE CORPORATION","1726","1ST AVE"
"NY",11220,"Kings","Brooklyn",-74.0133144,40.6414317,"4317 GROCERY INC","809","44THST"
"NY",11235,"Kings","Brooklyn",-73.956460438,40.578062083,"FEST PRODUCTION INC","1111A","BRIGHTON BEACH AVE"
"NY",11420,"Queens","Queens",-73.822538999,40.676532388,"ROYALE SWEETS LLC","115-08","ROCKAWAY BLVD"
"NY",10003,"New York","Manhattan",-73.989348679,40.726007368,"LUSCIOUS MARKET DELI CORP","68","2ND AVE"
"NY",11218,"Kings","Brooklyn",-73.974160419,40.638549165,"CITYLINE PHARMACY CORP","511","CORTELYOU RD"
"NY",11211,"Kings","Brooklyn",-73.954042845,40.71044297,"TORIBIO GROCERY STORE CORP","335","S 2ND ST"
"NY",10459,"Bronx","Bronx",-73.895817428,40.83044508,"FREEMAN DELI GROCERY CORP","854","FREEMAN ST"
"NY",10002,"New York","Manhattan",-73.991059928,40.7108883,"CHERRY STREET FOOD MARKET LLC","227","CHERRY STREET"
"NY",10013,"New York","Manhattan",-74.004969277,40.721385335,"SOHO DELI GROCERY T INC","386","CANAL ST"
"NY",10032,"New York","Manhattan",-73.940440358,40.834762101,"MEXICAN CULTURE DELI GROCERY GROUP THE","2017","AMSTERDAM AVE"
"NY",10459,"Bronx","Bronx",-73.898409891,40.817435533,"ULISESS BUTCHER SHOP NY INC","956","LONGWOOD AVE"
"NY",10034,"New York","Manhattan",-73.928536379,40.866368791,"CHURCH OF JESUS CHRIST OF LATTER-DAY SAI","250","DYCKMAN ST"
"NY",10455,"Bronx","Bronx",-73.914271961,40.814647862,"UTC PHARMACY INC","516","E 149TH ST"
"NY",11238,"Kings","Brooklyn",-73.963682537,40.671349648,"LEMONS & OLIVES INC","200","EASTERN PARKWAY"
"NY",11232,"Kings","Brooklyn",-73.999531769,40.645337124,"LUCKY 4216 GROCERY INC","4216","8TH AVENUE"
"NY",10032,"New York","Manhattan",-73.945172361,40.833215597,"NEILAARSHI HEALTH CRE LLC","3750","BROADWAY"
"NY",11354,"Queens","Queens",-73.833076308,40.758705256,"YITHE INC","133-35","ROOSEVELT AVE"
"NY",11354,"Queens","Queens",-73.830551092,40.758628645,"DEERS GINSENG INC","135-28","40TH RD"
"NY",10031,"New York","Manhattan",-73.947826323,40.83047262,"BHOLE PHRAMACY INC","3663","BROADWAY"
"NY",11216,"Kings","Brooklyn",-73.954814316,40.687118564,"JURY MARKET 1 CORP","1098","BEDFORD AVE"
"NY",10065,"New York","Manhattan",-73.961029916,40.761228837,"ALEXANDERS MINI MART CORP","1121","1ST AVE"
"NY",11229,"Kings","Brooklyn",-73.959462249,40.608133041,"YEMZ DELI & FOOD MARKET CORP","1314","KINGS HWY"
"NY",11373,"Queens","Queens",-73.878629773,40.742184734,"ASIAN TASTE STORE INC","86-25","WHITNEY AVE"
"NY",11203,"Kings","Brooklyn",-73.939248619,40.654698871,"LENOX DELI BITES CORP","787","ALBANY AVE"
"NY",11228,"Kings","Brooklyn",-74.005652654,40.621830663,"PYTHONIFIED LLC","7203","13TH AVENUE 1ST FL"
"NY",10460,"Bronx","Bronx",-73.866311896,40.840233807,"HONEST KING DELI GROCERY CORP","1587","THIERIOT AVE"
"NY",10305,"Richmond","Staten Island",-74.086836583,40.594570325,"ASIAN YANG SUPERMARKET INC","1399","HYLAN BLVD"
"NY",11212,"Kings","Brooklyn",-73.915722125,40.655701808,"KING CAPITAL DELI GROCERY CORP","9527","CHURCH AVE"
"NY",11222,"Kings","Brooklyn",-73.952038397,40.733902366,"MCGREENLAND DELI AND GRILL CORP","336","MCGUINESS BLVD"
"NY",10002,"New York","Manhattan",-73.98301833,40.719884471,"TROUSER FOODS INC","196","STANTON ST"
"NY",11236,"Kings","Brooklyn",-73.901887626,40.644926285,"BELLOS AMERICAN CORP","1445","ROCKAWAY PKWY"
"NY",11428,"Queens","Queens",-73.741907605,40.716989739,"EXPRESS STAR DELI CORP","21457","JAMAICA AVE"
"NY",10304,"Richmond","Staten Island",-74.075945389,40.631587282,"WB SEAFOOD INC","425","BAY STREET"
"NY",10032,"New York","Manhattan",-73.939145605,40.84432053,"PERA PRODUCE & MEAT MARKET CORP","4087","BROADWAY"
"NY",10459,"Bronx","Bronx",-73.900141508,40.824936121,"WB SEAFOOD INC","1041","PROSPECT AVE"
"NY",11206,"Kings","Brooklyn",-73.937750437,40.698229196,"874 MINI MARKET CORP","874","BROADWAY"
"NY",11226,"Kings","Brooklyn",-73.957839931,40.645059473,"24K DELI INC","1057","FLATBUSH AVE"
"NY",11378,"Queens","Queens",-73.904269679,40.722045871,"61 ST GREEN APPLE DELI CORP","6101","GRAND AVE"
"NY",11225,"Kings","Brooklyn",-73.956495558,40.666264389,"ALQADIR DELI & GROCERY INC","1649","BEDFORD AVE"
"NY",10455,"Bronx","Bronx",-73.916450345,40.812661411,"10 DAYS GROCERY CORP","459","BROOK AVE"
"NY",11237,"Kings","Brooklyn",-73.926871397,40.701505137,"107 WILSON EXPRESS CORP","107","WILSON AVE"
"NY",10467,"Bronx","Bronx",-73.868140324,40.865032673,"MOSES BAGELS & MORE CORP","674","ALLERTON AVE"
"NY",11211,"Kings","Brooklyn",-73.958238072,40.708403108,"WILLIAMSBURG DELI SERVICE LLC","296","BROADWAY"
"NY",10026,"New York","Manhattan",-73.949824904,40.801380542,"LENOX DELI AND CONVENIENCE CORP","100","LENOX AVE"
"NY",10031,"New York","Manhattan",-73.946901799,40.830839579,"SANTIAGO DELI 152 CORP","3680","BROADWAY"
"NY",10016,"New York","Manhattan",-73.973574859,40.747650238,"ORGANIC DELI & KIMCHI INC","720","2ND AVE"
"NY",11415,"Queens","Queens",-73.825045691,40.703793858,"FOUR SEASONS MARKETPLACE CORP THE","85-17","126TH ST"
"NY",11236,"Kings","Brooklyn",-73.894274763,40.639503696,"PRINCE CONVENIENCE GROCERY CORP","9801","AVENUE L"
"NY",10454,"Bronx","Bronx",-73.922908098,40.80942675,"A & E HEALTHY CHOICE CORP","237","WILLIS AVE"
"NY",10304,"Richmond","Staten Island",-74.079718419,40.629094336,"ANOUD DELI CORP","374","VAN DUZER STREET"
"NY",10465,"Bronx","Bronx",-73.82017438,40.82471421,"SKYLINER CONVENIENCE CORP","3815","E TREMONT AVE"
"NY",11223,"Kings","Brooklyn",-73.975353583,40.604677475,"KINGS HWY DELI & GRILL INCORPORATED","399","KINGS HWY"
"NY",10461,"Bronx","Bronx",-73.845589819,40.843183524,"LA TIENDITA DONA FIDE 2 CORP","2589","ST RAYMOND AVENUE"
"NY",10030,"New York","Manhattan",-73.940532223,40.820105924,"J U GOURMET DELI INC","2448","ADAM CLAYTON POWELL BLVD"
"NY",11210,"Kings","Brooklyn",-73.946225631,40.631234907,"STAR BRITE FLATBUSH INC","1608","FLATBUSH AVE"
"NY",10456,"Bronx","Bronx",-73.907705505,40.826120861,"BRONX MINI MART CORP","3324","3RD AVE"
"NY",11232,"Kings","Brooklyn",-73.999191548,40.645282599,"LUCKY U CONVENIENCE INC","4211","8TH AVE"
"NY",11226,"Kings","Brooklyn",-73.960733951,40.649716123,"GAZA CONVIENCE INC","533","OCEAN AVE"
"NY",11203,"Kings","Brooklyn",-73.931534753,40.651817927,"ISLAND GROCERY & DELI LLC","4823","CHURCH AVE"
"NY",10459,"Bronx","Bronx",-73.887429598,40.826794431,"SIMREEN PACKING ENTERPRISE INC","1260","WESTCHESTER AVE"
"NY",11225,"Kings","Brooklyn",-73.960352491,40.658897744,"SWEET CANDY DELI CORP","597","FLATBUSH AVE"
"NY",10303,"Richmond","Staten Island",-74.155895754,40.625770493,"WB SEAFOOD INC","2040","FOREST AVE"
"NY",11205,"Kings","Brooklyn",-73.95704122,40.69830128,"BEYOND SAIL INC","744","BEDFORD AVE"
"NY",10463,"Bronx","Bronx",-73.899431226,40.879311832,"KIMBERLY DELI GROCERY CORP","3340-44","FORT INDEPENDENCE STREET"
"NY",11207,"Kings","Brooklyn",-73.892655463,40.680305502,"FRESH DEPOT MARKET INC","200","JAMAICA AVE"
"NY",10458,"Bronx","Bronx",-73.893672272,40.859953491,"M&A DELI GROCERY 1 INC","374","E 188TH ST"
"NY",11203,"Kings","Brooklyn",-73.943184174,40.655723685,"KINGS DRUG&SURGICAL CORP","492","CLARKSON AVE"
"NY",11229,"Kings","Brooklyn",-73.933917058,40.600453751,"NETO SOLUTIONS INC","2133","KNAPP ST 2ND FLOOR"
"NY",10013,"New York","Manhattan",-74.000777488,40.717949132,"LAFAYETTE DELI & CONVENIENCE INC","107B","LAFAYETTE ST"
"NY",11203,"Kings","Brooklyn",-73.929507255,40.65178704,"TOP FISH MKT INC","5024","CHURCH AVE"
"NY",10027,"New York","Manhattan",-73.955991135,40.814057584,"CALIFORNIA GRILL AND DELI CORP","1348-B","AMSTERDAM AVENUE"
"NY",11372,"Queens","Queens",-73.882983417,40.749780457,"NETRA INC","83-10","37TH AVE"
"NY",11206,"Kings","Brooklyn",-73.933659398,40.698358151,"FIREHOUSE DELI & GRILL #3 CORPORATION","4","STANWIX ST STORE"
"NY",11225,"Kings","Brooklyn",-73.950002936,40.657217382,"JIMMY DELI & CONVENIENCE INC","299","WINTHROP ST"
"NY",11206,"Kings","Brooklyn",-73.941176037,40.69944189,"MGB GOURMET DELI INC","15","MARCUS GARVEY BLVD"
"NY",11412,"Queens","Queens",-73.75120389,40.694878698,"LINDEN STOP DELI CORP","201-01","LIINDEN BLVD"
"NY",10459,"Bronx","Bronx",-73.90119042,40.820229724,"MAX FRESH FOOD DELI CORP","870","PROSPECT AVE"
"NY",11229,"Kings","Brooklyn",-73.957554276,40.608928651,"FANCY FARMS NY LLC","1524","KINGS  HWY"
"NY",11418,"Queens","Queens",-73.829930161,40.700337161,"HARSH DELI & GRILL INC","120-03","JAMAICA AVE"
"NY",11367,"Queens","Queens",-73.813242546,40.718917367,"GDMA BROS INC","149-17A","UNION TPKE"
"NY",10471,"Bronx","Bronx",-73.89883544,40.889624716,"BEST DELI & GRILL II CORP","201","W 242ND ST"
"NY",11412,"Queens","Queens",-73.758854137,40.706424099,"SANAHY FOOD CORNER CORP","198-21","HOLLIS AVE"
"NY",10467,"Bronx","Bronx",-73.868459507,40.858645747,"OLINVILLE DELI PLAZA CORP","2220","OLINVILLE AVE"
"NY",11207,"Kings","Brooklyn",-73.892519844,40.662228125,"411 NEW LOTS DELI CORP","411","NEW LOTS AVENUE"
"NY",10022,"New York","Manhattan",-73.969861592,40.760177872,"FRIDGES 1 LLC","672","LEXINGTON AVE"
"NY",10033,"New York","Manhattan",-73.93692482,40.850397703,"WORLD OF HEALTH CORP THE","720","WEST 181ST ST"
"NY",10457,"Bronx","Bronx",-73.898394636,40.854248894,"EL TRIANGULO DELI MARKET INC","2160","TIEBOUT AVENUE"
"NY",10003,"New York","Manhattan",-73.988500849,40.737560774,"CHEVALIER JENNIFER","228","PARK AVE S"
"NY",10310,"Richmond","Staten Island",-74.113653225,40.637602471,"ELM MINI MART CORPORATION","169","ELM ST"
"NY",11691,"Queens","Queens",-73.753842597,40.600842294,"VERY BERRY DELI CORP","601","BEACH 20TH ST"
"NY",10453,"Bronx","Bronx",-73.905533838,40.855574953,"HUSSIENS 99 CENTS AND UP INC","2128","JEROME AVENUE FRNT 3"
"NY",11206,"Kings","Brooklyn",-73.942743537,40.70107854,"SHINING STARS STORE INC","724","BROADWAY"
"NY",10456,"Bronx","Bronx",-73.905027823,40.826990148,"1086 BOSTON RD DELI CORP","1086","BOSTON RD"
"NY",10451,"Bronx","Bronx",-73.918639195,40.818851446,"W CANDY CORP","641","COURTLANDT AVE"
"NY",11223,"Kings","Brooklyn",-73.961933234,40.598104387,"DAVIDS MINI MARKET INC","902","AVENUE U"
"NY",11213,"Kings","Brooklyn",-73.933654324,40.669208828,"JS ORGANIC MARKET CORP","1045","EASTERN PKWY STE A"
"NY",10459,"Bronx","Bronx",-73.892079542,40.830391944,"1285 ROYALTY GOURMET DELI & GROC CORP","1285","SOUTHERN BLVD"
"NY",11373,"Queens","Queens",-73.871497109,40.742303757,"FRESH BITES CAFE INC","92-24","CORONA AVE"
"NY",11225,"Kings","Brooklyn",-73.960365315,40.65921064,"MIDWOOD GROCERY CORP","587","FLATBUSH AVE"
"NY",10467,"Bronx","Bronx",-73.863890196,40.876742276,"GUNHILL MEXICAN DELI GROCERY LLC","751","E GUN HILL ROAD STE B"
"NY",11421,"Queens","Queens",-73.866744402,40.691269492,"75 CONVENIENT CORP","74-34","JAMAICA AVE"
"NY",11358,"Queens","Queens",-73.803017714,40.771348183,"LUCKI MART INC","161-09","29TH AVE"
"NY",11226,"Kings","Brooklyn",-73.958295236,40.643844558,"2112 YAFA LLC","2112","CORTELYOU RD"
"NY",10468,"Bronx","Bronx",-73.903381952,40.86289797,"53 CHOPPED CHEESE CORP","53","W FORDHAM RD"
"NY",10471,"Bronx","Bronx",-73.90305665,40.909979539,"6052 DOLPHINS GOURMET DELI CORP","6052","RIVERDALE AVE"
"NY",10009,"New York","Manhattan",-73.977951395,40.721179536,"JAY & M DELI CORP","35","AVE D"
"NY",10457,"Bronx","Bronx",-73.891577299,40.849174029,"HALA DELI CORP","2086","ARTHUR AVE"
"NY",10467,"Bronx","Bronx",-73.862165536,40.88435778,"826 SNACK & CONVENIENCE STORE INC","3826","WHITE PLAINS RD"
"NY",11415,"Queens","Queens",-73.826265341,40.71223223,"ZAK ORGANIC CONVENIENCE CORP","120-78","QUEENS BLVD"
"NY",10025,"New York","Manhattan",-73.968682637,40.798631872,"CVS ALBANY LLC","2686","BROADWAY"
"NY",10472,"Bronx","Bronx",-73.86730096,40.831253017,"TACO GRANDE DELI CORP","1257","ST LAWRENCE AVE"
"NY",11355,"Queens","Queens",-73.829186602,40.747237597,"HUA TING INC","135-28","BOOTH MEMORIAL"
"NY",10025,"New York","Manhattan",-73.968425018,40.799997487,"BROADWAY STARS DELI CORP","2721","BROADWAY"
"NY",11436,"Queens","Queens",-73.790041103,40.67317925,"A AND M DELI GROCERY CORP I","147-18","ROCKAWAY BLVD"
"NY",11215,"Kings","Brooklyn",-73.987138814,40.667958824,"331 EXPRESS DELI GROCERY CORP","331","11TH ST"
"NY",10457,"Bronx","Bronx",-73.905071325,40.844526096,"H&S CONVENIENCE CORP","288","EAST 174TH STREET"
"NY",10452,"Bronx","Bronx",-73.918771713,40.83839708,"BLACK OLIVE GOURMET INC","1318","JEROME AVE"
"NY",10469,"Bronx","Bronx",-73.861343355,40.865398501,"9 STAR DELI AND GROCERY CORP","900","ALLERTON AVE"
"NY",10456,"Bronx","Bronx",-73.912827183,40.838004221,"NUEVA ESPERANZA DELI 2 CORP","1374","SHERIDAN AVE"
"NY",11215,"Kings","Brooklyn",-73.989846061,40.6651848,"ORGANIC SNACKS 1 & CONVENIENCE INC","566","5TH AVE"
"NY",10007,"New York","Manhattan",-74.00976381,40.715645743,"TRIBECA OLIVE BRANCH DELI INC","146","CHAMBERS ST"
"NY",11368,"Queens","Queens",-73.863076565,40.749346777,"FRESH FARM SUPERMARKET CORP","40-16","NATIONAL STREET"
"NY",11372,"Queens","Queens",-73.87166986,40.753476541,"34-61 DELI CORP","34-61","JUNCTION BLVD"
"NY",11213,"Kings","Brooklyn",-73.931296959,40.668417784,"280 SUPER STOP CORP","280","UTICA AVENUE"
"NY",11237,"Kings","Brooklyn",-73.919312681,40.70629946,"SUYDAM BEER & MARKET INC","81","ST NICHOLAS AVE"
"NY",10302,"Richmond","Staten Island",-74.134029296,40.632622321,"NY DELI & GRILL CORP","341","HEBERTON AVE"
"NY",10460,"Bronx","Bronx",-73.871468191,40.842322619,"NAJIM GOURMET DELI INC","526","MORRIS PARK AVE"
"NY",10029,"New York","Manhattan",-73.947360792,40.788218691,"101 MINI MARKET CORP","1810","3RD AVE"
"NY",10451,"Bronx","Bronx",-73.922499648,40.81759634,"MORRIS MINI MARKET CORP","554","MORRIS AVENUE"
"NY",10001,"New York","Manhattan",-73.995519771,40.749094524,"NEW 382 FARMERS DELI INC","382","8TH AVENUE"
"NY",10453,"Bronx","Bronx",-73.904190135,40.852217456,"SAM 4 DELI GROCERY INC","2039","GRAND CONCOURSE"
"NY",11428,"Queens","Queens",-73.735668032,40.718527777,"TASTY CHOICE DELI & GROCERY CORP","219-15","JAMAICA AVE"
"NY",10302,"Richmond","Staten Island",-74.135902568,40.624878155,"LA MILPA DELI & GROCERY LLC","1414","FOREST AVE"
"NY",10461,"Bronx","Bronx",-73.829378213,40.852206475,"SKANDERBEG ALBANIAN MARKET LLC","2000","CONTINENTAL AVE"
"NY",10019,"New York","Manhattan",-73.982881873,40.761048543,"CENTRAL CAFE & DELI INC","159","W 50TH ST"
"NY",11416,"Queens","Queens",-73.861728419,40.684285187,"9402 DELI AND GRILL CORP","94-02","78TH ST"
"NY",10036,"New York","Manhattan",-73.994649478,40.760463025,"600 DELI CORP","600","10TH AVE"
"NY",11368,"Queens","Queens",-73.857163132,40.751047717,"OUR DREAM DELI GROCERY LLC","108-42","ROOSEVELT AVE"
"NY",11223,"Kings","Brooklyn",-73.969796968,40.609023115,"SYLVIAS SWEETS LLC","474","AVENUE P"
"NY",11368,"Queens","Queens",-73.859068255,40.758055491,"PAVAN INC","110-21","NORTHERN BLVD"
"NY",11427,"Queens","Queens",-73.757524348,40.718175066,"YAHYA PLUS CONVENIENCE STORE CORP","89-58","FRANCIS LEWIS BLVD"
"NY",10465,"Bronx","Bronx",-73.820271023,40.824913867,"ONE BEST DELI & MORE CORP","3807","E TREMONT FL 1"
"NY",10456,"Bronx","Bronx",-73.910009418,40.834381942,"KPODA CT SERVICES LLC","383","E 169TH ST"
"NY",10023,"New York","Manhattan",-73.987553527,40.772145638,"RA 22 PARK PLACE ENTERPRISES INC","211","WEST 61ST STREET"
"NY",10019,"New York","Manhattan",-73.984079144,40.765400804,"HYDRA HOSPITALITY 2 LLC","927","8TH AVENUE"
"NY",10012,"New York","Manhattan",-74.000375827,40.730661629,"WEST 3RD NYC DELI INC","121","W 3RD ST"
"NY",10304,"Richmond","Staten Island",-74.084328215,40.615621181,"OMW THE HIGH STATION DELI CORP","425","VANDERBILT AVE"
"NY",11420,"Queens","Queens",-73.821270901,40.680681179,"NUNEZ GROCERY AND DELI INC","109-59","LEFFERTS BLVD"
"NY",11372,"Queens","Queens",-73.878340765,40.748094521,"PLACITA 88 CORP","88-04","ROOSEVELT AVE"
"NY",10472,"Bronx","Bronx",-73.880316212,40.828844561,"WHEELER DELI GROCERY CORPORATION","1209","WHEELER AVE"
"NY",11225,"Kings","Brooklyn",-73.954067656,40.664618309,"356 EXPRESS SULLIVAN FOOD CORP","209","SULLIVAN PL"
"NY",11432,"Queens","Queens",-73.797957978,40.706331521,"GREEN FOOD MART INC","89-20","163RD STREET"
"NY",10305,"Richmond","Staten Island",-74.081068744,40.598464599,"ON THE GO GROCERIES INC","1150","HYLAN BLVD"
"NY",10039,"New York","Manhattan",-73.937592774,40.829074057,"STEVE DELI FOOD CORPORATION","2923","FREDERICK DOUGLAS BLVD"
"NY",10002,"New York","Manhattan",-73.991820502,40.718240864,"116 CONVENIENCE INC","116","ELDRIDGE ST"
"NY",11354,"Queens","Queens",-73.846448126,40.774762426,"PATRON DELI INC","25-75","COLLEGE POINT BLVD"
"NY",11234,"Kings","Brooklyn",-73.924279629,40.608363962,"U FARMER DELI CORP","4010","AVENUE U"
"NY",11236,"Kings","Brooklyn",-73.897410265,40.648512063,"F & N BRUKELEN DELI CORP","10319","GLENWOOD RD"
"NY",11222,"Kings","Brooklyn",-73.955487047,40.736685912,"AMERICAN EXPRESS DELI CORP","1115","MANHATTAN AVE"
"NY",11223,"Kings","Brooklyn",-73.962764299,40.598267624,"SKS INVESTORS NY LLC","807","AVENUE U"
"NY",10456,"Bronx","Bronx",-73.902965791,40.822522091,"BRONX FAMOUS DELI CORP","782","E 163RD ST"
"NY",10018,"New York","Manhattan",-73.984270838,40.750712064,"ROLLGOOD","16","W 37TH STREET"
"NY",10468,"Bronx","Bronx",-73.895530037,40.866850163,"ALS FRUIT & VEGETABLES CORP","75","EAST KINGSBRIDGE RD"
"NY",11432,"Queens","Queens",-73.800583945,40.703380085,"ABU KHALIL DELI & GRILL CORP","155-27","JAMAICA AVE"
"NY",11423,"Queens","Queens",-73.756330513,40.713660908,"PUERTO PLATA DELI GROCERY INC","202-19","JAMAICA AVE"
"NY",11226,"Kings","Brooklyn",-73.961752855,40.649799481,"NEW L&C FISH MARKET INC","1910","CHURCH AVE"
"NY",10453,"Bronx","Bronx",-73.915259109,40.847060741,"174TH GRAND FOODMART CORP","1645","GRAND AVE"
"NY",10301,"Richmond","Staten Island",-74.103080711,40.616476178,"EL NILE MARKET INC","1172","VICTORY BLVD STORE A1"
"NY",10040,"New York","Manhattan",-73.926224817,40.861232235,"MI LUPITA GROCERY CORP","132","NAGLE AVE"
"NY",10301,"Richmond","Staten Island",-74.078492734,40.638201484,"FRUTAS Y ABARROTES HM LLC","54-A","VICTORY BLVD"
"NY",10021,"New York","Manhattan",-73.958116869,40.769463638,"1399 FINEST CAFE GROUP CORP","1399","2ND AVE"
"NY",11368,"Queens","Queens",-73.855603428,40.751525024,"QWC GROUP INC","111-02","ROOSEVELT AVE"
"NY",10034,"New York","Manhattan",-73.920550018,40.866949866,"U & G CORP","581","W 207TH ST"
"NY",11230,"Kings","Brooklyn",-73.955645549,40.61838063,"JAM RX LLC","1914","AVENUE M"
"NY",11212,"Kings","Brooklyn",-73.908431294,40.656245123,"HEGEMAN CONVENIENCE CORP","622","CHESTER STREET"
"NY",10473,"Bronx","Bronx",-73.848378981,40.82139133,"TOP HELL MINI MART MARKET CORP","708","CASTLE HILL AVE"
"NY",11237,"Kings","Brooklyn",-73.921351579,40.700656385,"ONE STOP FAMILY MART INC","365","KNICKERBOCKER AVE"
"NY",10034,"New York","Manhattan",-73.923688873,40.864609303,"CAPA DELI & GROCERY LLC","144","SHERMAN AVE"
"NY",11385,"Queens","Queens",-73.891656089,40.70093697,"SAMS GLENDALE SMOKE N CONVENIENCE CORP","64-20","MYRTLE AVE"
"NY",10307,"Richmond","Staten Island",-74.241932805,40.510750665,"SOUTH SHORE DELI & CONVENIENCE 1 CORP","7344","AMBOY RD"
"NY",10305,"Richmond","Staten Island",-74.07931592,40.598804108,"ALJAZEERA HALAL MEAT MARKET CORP","1095-1101","HYLAN BLVD"
"NY",11206,"Kings","Brooklyn",-73.937459921,40.694362708,"CLASSIC DELI & ORGANIC CORP","86","LEWIS AVE"
"NY",10001,"New York","Manhattan",-74.000353278,40.747690175,"GOURMET SQUARE ORGANIC MARKET INC","248","9TH AVE"
"NY",11233,"Kings","Brooklyn",-73.932489368,40.684434511,"BROOKLYN HEIGHTS DELI CORP","302","STUYVESANT AVE"
"NY",11226,"Kings","Brooklyn",-73.961469295,40.650115898,"OCEAN DELI & GRILL CORP 1","1925","CHURCH AVE"
"NY",10454,"Bronx","Bronx",-73.924941716,40.812114869,"3RD AVE BLUE STAR CORP","2614","3RD AVE"
"NY",11213,"Kings","Brooklyn",-73.941673587,40.67102246,"HARRY COFFEE GROCERY SHOP CORP","1102","SAINT JOHNS PL"
"NY",10002,"New York","Manhattan",-73.982999052,40.719576311,"RIDGE MINI MARKET AND DELI 1 CORP","129","RIDGE ST"
"NY",11385,"Queens","Queens",-73.898973909,40.699652611,"FOREST DELI AND CONVENIENCE CORPORATION","7220","FOREST AVE"
"NY",10467,"Bronx","Bronx",-73.86507875,40.871561882,"TOP DELI & MORE CORP","743","BURKE AVE"
"NY",11224,"Kings","Brooklyn",-73.991938855,40.575970211,"N & M S BROOKLYN DELI INC","2423","MERMAID AVE"
"NY",11213,"Kings","Brooklyn",-73.927736829,40.672093793,"KANZ DELI CORP","1492","PARK PL"
"NY",10119,"New York","Manhattan",-73.99159528,40.750946254,"DUANE READE INC","1","PENN PLAZA"
"NY",11223,"Kings","Brooklyn",-73.983799607,40.58796065,"HABIBIS DELI & GRILL INC","2436","STILLWELL AVE"
"NY",11379,"Queens","Queens",-73.878516869,40.712921624,"74TH ST GOURMET CORP","73-21","METROPOLITAN AVE"
"NY",11368,"Queens","Queens",-73.862896857,40.746979392,"BIANCAS DELI CORP","43-06","102ND ST"
"NY",11215,"Kings","Brooklyn",-73.983414291,40.677254573,"230 DELI & GRILL I LLC","230","4TH AVE"
"NY",10308,"Richmond","Staten Island",-74.164658531,40.559531371,"BAGEL BOX 2 INC THE","700","ARTHUR KILL RD"
"NY",10075,"New York","Manhattan",-73.955098714,40.77436043,"LA PETITE EPICERIE NYC LLC","239","EAST 80TH STREET"
"NY",10467,"Bronx","Bronx",-73.865007504,40.865334967,"SOCOTRA MEAT MARKET LLC","762","ALLERTON AVE"
"NY",10452,"Bronx","Bronx",-73.92867109,40.83434015,"MAX DEALS OGDEN INC","1049","OGDEN AVE"
"NY",11226,"Kings","Brooklyn",-73.957824173,40.644785553,"SAL CONVENIENT CORP","1067","FLATBUSH AVE"
"NY",10454,"Bronx","Bronx",-73.923424424,40.812862954,"MOODY GROCERY CORP","2660","3RD AVE"
"NY",10451,"Bronx","Bronx",-73.92201618,40.818662099,"MORRO DELI GROCERY CORP","602","MORRIS AVE #3"
"NY",11214,"Kings","Brooklyn",-73.99404003,40.59611775,"BAY 35 ST GROCERY INC","180","BAY 35TH ST"
"NY",10454,"Bronx","Bronx",-73.917753815,40.8061708,"DELI GROCERY 137A CORP","575","E 137TH ST"
"NY",11204,"Kings","Brooklyn",-73.98806717,40.621436211,"NO7 GROCERY INC","6102","18TH AVENUE"
"NY",11220,"Kings","Brooklyn",-74.001776108,40.643185573,"BEIBEI MARKET INC","4612","8TH AVENUE"
"NY",11372,"Queens","Queens",-73.873811017,40.750979111,"93 CANDY CITY STORE INC","93-05","37TH AVE UNIT CO 1D"
"NY",11209,"Kings","Brooklyn",-74.029658173,40.626489492,"SAL CANDY & LOTTO CORP","8123","3RD AVE"
"NY",11220,"Kings","Brooklyn",-74.007514275,40.637669694,"KUAN SING GROCERY INC","5606","8TH AVENUE"
"NY",11219,"Kings","Brooklyn",-73.997864692,40.621180521,"BARAKA HALAL MEATS INC","1537","68TH ST, APT 4B"
"NY",10305,"Richmond","Staten Island",-74.072839978,40.592408842,"SOUTH BEACH DELI CORP","125","OLYMPIA BLVD"
"NY",10467,"Bronx","Bronx",-73.866349698,40.871287878,"GLOBAL FRUIT MARKET CORP","722","BURKE AVE"
"NY",11361,"Queens","Queens",-73.767300078,40.760802366,"CAFENORTH FOOD CORP","215-05","NORTHERN BLVD STE 3"
"NY",11416,"Queens","Queens",-73.862105689,40.679820483,"DESHI BAZAR SUPERMARKET INC","75-05","101ST AVE"
"NY",11373,"Queens","Queens",-73.888275583,40.743634007,"RONY TRADERS INC","76-15","WOODSIDE AVENUE"
"NY",11433,"Queens","Queens",-73.784163293,40.696859551,"109 STOP 1 DELI INC","109-14","MERRICK BLVD"
"NY",11372,"Queens","Queens",-73.879338211,40.747998422,"FYZ NY INC","86-20","ROOSEVELT AVE."
"NY",11215,"Kings","Brooklyn",-73.980838197,40.667570415,"305 GOOD DELI & GROCERY CORP","305","7TH AVE"
"NY",10003,"New York","Manhattan",-73.989153716,40.730905291,"HEALTHY CHOICE 48 CORP","48","3RD AVE"
"NY",10022,"New York","Manhattan",-73.966030979,40.758610582,"BHAKTI 1061 INC","1061","2ND AVE"
"NY",10305,"Richmond","Staten Island",-74.06327388,40.595642957,"OCEAN AVE DELI OF STATEN ISLAND INC","112","OCEAN AVE"
"NY",10466,"Bronx","Bronx",-73.851955623,40.891512656,"JP BXWOOD GROCERY CORP","884","E 233RD STREET"
"NY",11222,"Kings","Brooklyn",-73.944898524,40.723122442,"GREEN VALLEY MART CORP","162","DRIGGS AVE"
"NY",10033,"New York","Manhattan",-73.937080556,40.849167658,"GREEN LAND GROCERY CORP","4225","BROADWAY"
"NY",10467,"Bronx","Bronx",-73.861775107,40.878937203,"EIGHT BROTHERS DELI & GROCERY CORP","788","EAST 214TH STREET"
"NY",10034,"New York","Manhattan",-73.919914837,40.865406674,"D CHICHI DELI GROCERY CORP","534","W 207TH ST"
"NY",10455,"Bronx","Bronx",-73.9079433,40.811309158,"WALES AVE GROCERY CORP","481","WALES AVE"
"NY",11237,"Kings","Brooklyn",-73.918869614,40.69897837,"452 GOURMET DELI AND GRILL CORP","452","KNICKERBOCKER AVE"
"NY",10452,"Bronx","Bronx",-73.923907724,40.842553373,"LA MIA DELI INC","1398","OGDEN AVENUE"
"NY",10032,"New York","Manhattan",-73.938727348,40.837700922,"2236 LA UNION DELI GROCERY CORP","2108","AMSTERDAM AVE"
"NY",11239,"Kings","Brooklyn",-73.883849855,40.646809405,"J SUSHI TIME","1380","PENNSYLVANIA AVE"
"NY",11356,"Queens","Queens",-73.841551335,40.781601724,"20TH AVE DELI & CONVENIENCE INC","126-20","20TH AVE"
"NY",11208,"Kings","Brooklyn",-73.871360484,40.674078125,"LA FLOTA DELI BK CORP","1018","BELMONT AVENUE"
"NY",11354,"Queens","Queens",-73.8310385,40.768090012,"137TH GOURMET INC","31-52","137TH STREET"
"NY",10025,"New York","Manhattan",-73.969769559,40.795415687,"DUKE DELI & MARKET PLACE INC","200","W 98TH ST"
"NY",10467,"Bronx","Bronx",-73.862189508,40.884317169,"MONTER SEAFOOD CORP","3824","WHITE PLAINS RD"
"NY",11230,"Kings","Brooklyn",-73.965341902,40.624573515,"AVENUE J JUICE BAR DELI CORP","1348","CONEY ISLAND AVE"
"NY",11385,"Queens","Queens",-73.881211902,40.704448317,"7020 EMPRESARIO JOVEN CORP","70-20","CENTRAL AVENUE"
"NY",10458,"Bronx","Bronx",-73.891069774,40.855183728,"DELY GROCERY METRO LOS REYES INC","531","E 184TH ST"
"NY",10461,"Bronx","Bronx",-73.856676311,40.853038547,"NEILL GOURMET DELI 2 INC","1074","NEILL AVE"
"NY",10459,"Bronx","Bronx",-73.889819278,40.82557038,"MARCS DELI & GROCERY CORP","1126","WESTCHESTER AVE"
"NY",11420,"Queens","Queens",-73.820598504,40.676207673,"APNA SOHNA BAZAAR QUEENS INC","117-10","ROCKAWAY BLVD"
"NY",11234,"Kings","Brooklyn",-73.938311103,40.624234719,"BOTTLES OF SUNNAH NYC INC","1871","FLATBUSH AVE. STORE 1"
"NY",11372,"Queens","Queens",-73.885845837,40.755673438,"VARGAS ABRAHAM","81-11","NORTHERN BLVD"
"NY",11368,"Queens","Queens",-73.864240308,40.743326727,"TEXIS GROCERY INC","98-11","ALSTYNE AVE"
"NY",10472,"Bronx","Bronx",-73.869082366,40.829619342,"GT HARDWARE & CONVENIENCE CORP","1735","GLEASON AVENUE"
"NY",11370,"Queens","Queens",-73.88761576,40.759204901,"SINAPPLE ENTERPRISE INC","80-05","31ST AVE"
"NY",11375,"Queens","Queens",-73.849500145,40.733234496,"E&S CUSTOM KOSHER MEAT MARKET INC","63-71","108TH ST."
"NY",10459,"Bronx","Bronx",-73.887327255,40.827223375,"WESTCHESTER AMIGO 99 INC","1255","WESTCHESTER AVE"
"NY",11223,"Kings","Brooklyn",-73.962666231,40.606964226,"NOSTRAND A&R PHARMACY INC","936","KINGS HWY"
"NY",11224,"Kings","Brooklyn",-73.985652472,40.575258204,"LONE STAR GOURMET MARKET INC","1901","SURF AVE."
"NY",11233,"Kings","Brooklyn",-73.910685775,40.678398703,"2059 FULTON DELI CORP","2059","FULTON ST"
"NY",10457,"Bronx","Bronx",-73.895462562,40.846659122,"STAR ONE DELI GROCERY 1 CORP","541","E TREMONT AVE"
"NY",11233,"Kings","Brooklyn",-73.906140017,40.674607861,"GRACE AFRICAN CARIBBEAN AMERICAN MARKET","2447","DEAN STREET"
"NY",11385,"Queens","Queens",-73.905737267,40.712522436,"MUSE GARDENS LLC","58-02","METROPALITAN AVE"
"NY",11691,"Queens","Queens",-73.783712766,40.592486835,"FREEWAY SUPERMARKET AND DELI CORP","53-07","ROCKWAY BEACH BLVD"
"NY",11208,"Kings","Brooklyn",-73.878882403,40.681637093,"LOS TORREZ DELI CORP","3142","FULTON ST"
"NY",11233,"Kings","Brooklyn",-73.922622024,40.671134694,"AL GROCERY AND DELI CORP","1691","STERLING PLACE"
"NY",11368,"Queens","Queens",-73.862182886,40.750552975,"CUNA DE AZUCAR INC","39-12","104TH ST"
"NY",10033,"New York","Manhattan",-73.931924344,40.849566344,"WA STOP CONVENIENCE INC","344","AUDUBON AVE"
"NY",10310,"Richmond","Staten Island",-74.110894154,40.63483221,"CASTLETON FARM TO BAGEL LLC","857","CASTLETON AVE"
"NY",11233,"Kings","Brooklyn",-73.921807471,40.67024462,"VALDEZ AND DELI GROCERY INC","1661-A","SAINT JOHNS PLACE"
"NY",11205,"Kings","Brooklyn",-73.954185841,40.690952489,"ORGANIC FRESH DELI & JUICE BAR INC","554","DEKALB AVE"
"NY",10459,"Bronx","Bronx",-73.898754219,40.818870725,"NOVAX DELI CORPORATION","831","DAWSON ST"
"NY",10456,"Bronx","Bronx",-73.918881264,40.83151822,"NSR DELI GROCERY CORP","182-B","E 166 STREET"
"NY",11226,"Kings","Brooklyn",-73.953132068,40.655370471,"PROSPECT GARDEN DELI CORP","660","ROGERS AVE"
"NY",11203,"Kings","Brooklyn",-73.927324775,40.652216152,"ALEX FISH MARKET CORP","5302","CHURCH AVE"
"NY",11421,"Queens","Queens",-73.86717146,40.69121283,"KATTYS DELICATESSEN CORP","74-22","JAMAICA AVE"
"NY",10009,"New York","Manhattan",-73.975799081,40.724251946,"RIVERSIDE DELI 1 MART CORP","129","AVENUE D"
"NY",11213,"Kings","Brooklyn",-73.930568655,40.673140819,"MY DELI FOOD CENTER CORP","167","UTICA AVENUE"
"NY",11372,"Queens","Queens",-73.882947313,40.749889796,"SHAHBAZ DELI INC","74-03","37TH AVE"
"NY",10022,"New York","Manhattan",-73.965490765,40.758620431,"FARMER & DELICIOUS INC","301","E 56TH ST"
"NY",10031,"New York","Manhattan",-73.952627896,40.818763394,"1514 GOURMET DELI & MORE CORP","1514","AMSTERDAM AVE"
"NY",10455,"Bronx","Bronx",-73.905176853,40.812589578,"E149 DISCOUNT STORE CORP","833","E 149TH ST"
"NY",10029,"New York","Manhattan",-73.937521695,40.793423602,"1ST AVE CORNER STORE DELI GROC CO","2165","1ST AVE"
"NY",11435,"Queens","Queens",-73.808247016,40.70633458,"KABA FOOD MARKET INC","148-19","HILLSIDE AVE"
"NY",10003,"New York","Manhattan",-73.993998959,40.7311557,"8TH ST MARKET CORP","44","E 8TH STREET"
"NY",11361,"Queens","Queens",-73.768270534,40.758677805,"SATKAIVAL QUICKSTOP INC","45-61","BELL BLVD"
"NY",11215,"Kings","Brooklyn",-73.992295337,40.6626336,"TOWN MARKET & GRILL CORP","650","5TH AVENUE"
"NY",11366,"Queens","Queens",-73.792784667,40.725644892,"QUEENS KOSHER SUPERMARKET LLC","176-19","UNION TURNPIKE"
"NY",10460,"Bronx","Bronx",-73.864983867,40.837828913,"ALAND GOURMET DELI 2 INC","1851","ARCHER ST"
"NY",11367,"Queens","Queens",-73.813997253,40.728127277,"NATURAL FOODS TRADING NY INC","72-15","KISSENA BLVD"
"NY",11385,"Queens","Queens",-73.920743723,40.689442573,"TORTILLAS DON PEDRO CORP","16-83","PALMETTO ST."
"NY",10310,"Richmond","Staten Island",-74.120524122,40.634186594,"LOS SISO GROCERY CORP","1138","CASTLETON AVE"
"NY",11368,"Queens","Queens",-73.861280155,40.749345813,"LINDO BEBE 88 INC","40-13","104TH STREET"
"NY",10310,"Richmond","Staten Island",-74.116211801,40.637070933,"WB MINI MART & GRILL CORP","718","HENDERSON AV"
"NY",11233,"Kings","Brooklyn",-73.928761433,40.680724136,"MALCOLMX GROUP INC","354","MALCOLM X BLVD"
"NY",11432,"Queens","Queens",-73.801244355,40.712740701,"CROWN DELI 2 CORPORATION","84-45","164TH ST"
"NY",10033,"New York","Manhattan",-73.934940991,40.847124947,"CALL SANTO DOMINGO GROCERY CORP","598","W 178TH ST"
"NY",11229,"Kings","Brooklyn",-73.955338017,40.595005974,"GRAVESEND DELI & GRILL INC","1507","GRAVESEND NECK RD"
"NY",10455,"Bronx","Bronx",-73.896616164,40.816185791,"FIRST HEALTH FRESH GOURMET INC","795","SOUTHERN BLVD"
"NY",10009,"New York","Manhattan",-73.983155626,40.722217909,"SZE SUPPLIES LLC","21","AVENUE B"
"NY",10309,"Richmond","Staten Island",-74.238702336,40.524001448,"NORTH SHORE CONVENIENCE CORP","4852","ARTHUR KILL RD"
"NY",11237,"Kings","Brooklyn",-73.910768839,40.699238922,"WYCKOFF ORGANIC SHOP AND GROCERY CORP","300","WYCKOFF AVENUE"
"NY",10458,"Bronx","Bronx",-73.894277147,40.863076714,"290 FAMILY DISCOUNT 99CENTS PLUS LLC","290","E KINGSBRIDGE ROAD"
"NY",11358,"Queens","Queens",-73.803838832,40.760915676,"CHOI AE KYEONG KR INC","4105","162 ST BSMT"
"NY",11356,"Queens","Queens",-73.84565503,40.784853651,"NEW FUZHOU NOODLES INC","1417","COLLEGE POINT BLVD"
"NY",11368,"Queens","Queens",-73.860727453,40.747693992,"ZAV GROCERY CORP","102-60","43RD AVE"
"NY",10459,"Bronx","Bronx",-73.891440841,40.823017294,"NEW HOPE GROCERY INC","944","ALDUS ST"
"NY",11220,"Kings","Brooklyn",-74.009690552,40.639389619,"TIAN YUAN VEG INC","673","56TH STREET"
"NY",11219,"Kings","Brooklyn",-74.003435557,40.634289314,"YOUJIAXING GROCERY INC","5701","FORT HAMILTON PKWY STORE 1"
"NY",11205,"Kings","Brooklyn",-73.961493519,40.698154094,"LEE AVE FISH CO INC","338","FLUSHING AVE"
"NY",10472,"Bronx","Bronx",-73.878002555,40.828210889,"LINO DELI GROCERY CORP","1160","BOYNTON AVE"
"NY",11368,"Queens","Queens",-73.863670506,40.746624628,"4307 W & M DELI GROCERY CORP","43-07","NATIONAL STREET"
"NY",11373,"Queens","Queens",-73.874882643,40.735298288,"LUS LICENSING LLC","88-01","QUEENS BLVD"
"NY",11223,"Kings","Brooklyn",-73.971529004,40.60884018,"SHLOMS HEIMISH CORPORATION","430","AVENUE P"
"NY",10010,"New York","Manhattan",-73.979952984,40.738847144,"432 EMPIRE GOURMET DELI GROCERY CORP","432","2ND AVE"
"NY",11213,"Kings","Brooklyn",-73.925402301,40.668907455,"291 BUFFALO GRILL DELI CORP","291","BUFFALO AVE"
"NY",10467,"Bronx","Bronx",-73.866183401,40.878500715,"C&S AFRICAN-CARIBBEAN SUPERMARKET LLC","3535","WHITE PLAINS RD"
"NY",10468,"Bronx","Bronx",-73.898758327,40.861365381,"CHARLIES DELI & GRILL CORP","2434","CRESTON AVE"
"NY",11229,"Kings","Brooklyn",-73.954319029,40.610274114,"EAST 19 DELI AND JUICE BAR INC","1910","KINGS HWY"
"NY",10453,"Bronx","Bronx",-73.917373444,40.851974674,"JASON DELI & GROCERY CORP","218","W TREMONT AVE"
"NY",10460,"Bronx","Bronx",-73.883330931,40.845286753,"EL SABOR DELI GROCERY CORP","860","E 180TH STREET"
"NY",10002,"New York","Manhattan",-73.99314962,40.72029003,"GRAND LIBERTY CONVENIENCE INC","14","DELANCEY ST"
"NY",11434,"Queens","Queens",-73.779305142,40.691497145,"ABU MUSA DELI & GRILL CORP","114-02","MERRICK BLVD"
"NY",10457,"Bronx","Bronx",-73.898587252,40.85210057,"ACEMAK DELI & GROCERY INC","363","E 180TH STREET"
"NY",11226,"Kings","Brooklyn",-73.965132606,40.640732106,"BROOKLYNS FINEST DELI & GRILL CORP","1402","CORTELYOU RD"
"NY",10472,"Bronx","Bronx",-73.878008171,40.833870182,"PAYA GOURMET DELI CORP","1570","E 174TH ST"
"NY",11385,"Queens","Queens",-73.890282116,40.70109593,"DOLGEN NEW YORK LLC","71-24","MYRTLE AVE"
"NY",10459,"Bronx","Bronx",-73.901773968,40.819830494,"AA DELI & GRILL INC","839C","PROSPECT AVE"
"NY",11212,"Kings","Brooklyn",-73.923417634,40.656339126,"REMSEN FOOD CORP","967","LENOX RD"
"NY",11416,"Queens","Queens",-73.840293211,40.689039319,"IBB CONVENIENCE INC","95-01","104TH ST"
"NY",11235,"Kings","Brooklyn",-73.960631021,40.581952418,"GOURMET FLAMING GRILL & JUICE BAR CORP","193","NEPTUNE AVE"
"NY",11207,"Kings","Brooklyn",-73.905899373,40.682314518,"ABERDEEN ORGANIC DELI INC","1526","BUSHWICK AVENUE"
"NY",11373,"Queens","Queens",-73.883558164,40.737370588,"51ST J DELI & GROCERY CORP","80-06","51ST AVE"
"NY",11375,"Queens","Queens",-73.833067675,40.716177742,"MAMMA ANNA LUISA LLC","116-09","QUEENS BLVD"
"NY",11367,"Queens","Queens",-73.814587758,40.738472264,"FLUSHING EXPRESSWAY INC","154-02","HORACE HARDING EXPRESSWAY"
"NY",11206,"Kings","Brooklyn",-73.93327207,40.700722644,"54 NOLL LLC","54","NOLL STREET"
"NY",11215,"Kings","Brooklyn",-73.985345817,40.670555169,"402 NEW WAY GOURMET DELI CORP","402","5TH AVENUE"
"NY",10462,"Bronx","Bronx",-73.852021002,40.840613926,"ALCANTARA 05 DELI GROCERY CORP","1736","ZEREGA AVE"
"NY",11416,"Queens","Queens",-73.853495379,40.682013524,"BJ GROCERY AND DELI CORP","86-02","101ST AVE"
"NY",11226,"Kings","Brooklyn",-73.949806212,40.651578205,"CAROLS FARM LLC","1424","NOSTRAND AVE"
"NY",10040,"New York","Manhattan",-73.930648618,40.85385901,"UPTOWN CHOPCHEESE DELI CORP","1561","SAINT NICHOLAS AVE"
"NY",11203,"Kings","Brooklyn",-73.934418547,40.651441077,"ADAM CONVENIENCE AND DELI CORP","4524","CHURCH AVE"
"NY",10031,"New York","Manhattan",-73.951448143,40.8246319,"LEAH MINI MARKET CORP","3484","BROADWAY"
"NY",10453,"Bronx","Bronx",-73.911439488,40.848866727,"1850 FOOD CORP","1850","JEROME AVENUE"
"NY",10009,"New York","Manhattan",-73.981565411,40.729012657,"NYC GRILL & DELI CORP","191","AVENUE A"
"NY",10027,"New York","Manhattan",-73.948068895,40.813940238,"273 CONVENIENCE CORP","273","W 131STREET  STORE #2"
"NY",10007,"New York","Manhattan",-74.011852245,40.711790654,"RCH USA HOLDING LLC","185","GREENWICH STREET"
"NY",10029,"New York","Manhattan",-73.947059044,40.784594566,"96 DELI & GRILL CORPORATION","1869","2ND AVE"
"NY",10457,"Bronx","Bronx",-73.910433563,40.840405091,"ORLANDINA DELI GROCERY CORP","261","EAST 172ND STREET"
"NY",11223,"Kings","Brooklyn",-73.973057193,40.596884066,"AVE U DELI AND CONVENIENCE INC","2271","MCDONALD AVE"
"NY",11101,"Queens","Queens",-73.957699458,40.745683557,"ICHIBAN NY SUSHI LLC","4-85","47TH RD"
"NY",11222,"Kings","Brooklyn",-73.941148293,40.723501849,"RJJ DELI GROCERY CORP","194","KINGSLAND AVENUE"
"NY",11212,"Kings","Brooklyn",-73.908396948,40.662550192,"250 SALAD BAR CORP","248","LIVONIA AVE"
"NY",10003,"New York","Manhattan",-73.981854838,40.732658911,"STUYTOWN MARKETPLACE INC","279","1ST AVE"
"NY",11209,"Kings","Brooklyn",-74.021191445,40.633431091,"GOURMET DELI GRILL HOT FOOD INC","6902","5TH AVE"
"NY",10028,"New York","Manhattan",-73.952531421,40.777107389,"CAROLINES DONUTS 2ND AVE LLC","1631","2ND AVENUE"
"NY",11234,"Kings","Brooklyn",-73.922472112,40.633141877,"56 DELI AND GRILL INC","5604","AVE H"
"NY",11221,"Kings","Brooklyn",-73.931566018,40.694753221,"BISCUIT DELI 2 INC","1064","BROADWAY"
"NY",11412,"Queens","Queens",-73.755517972,40.693685324,"196 LINDEN GROCERY CORP","196-19B","LINDEN BLVD"
"NY",11385,"Queens","Queens",-73.895182607,40.705439225,"BRIANA DELI INC","62-04","68TH AVE"
"NY",11691,"Queens","Queens",-73.754593448,40.606175321,"SNA DELI & GROCERY CORP","13-36","BEACH CHANNEL DR"
"NY",10452,"Bronx","Bronx",-73.921428692,40.84068425,"JB 170 DELI CORP","1346","EDWARD L GRANT HWY"
"NY",10034,"New York","Manhattan",-73.922318683,40.862678155,"224 NAGLE GROCERY CORP","224","NAGLE AVE"
"NY",11226,"Kings","Brooklyn",-73.95282923,40.650534449,"GREENZ GOURMET LLC","2602","CHURCH AVENUE"
"NY",10456,"Bronx","Bronx",-73.908165001,40.835273732,"ECG DELI INC","1349","WEBSTER AVENUE"
"NY",11207,"Kings","Brooklyn",-73.897581088,40.662534568,"ZM DELI GROCERY STORE CORPORATION","510","RIVERDALE AVE"
"NY",11422,"Queens","Queens",-73.74034438,40.65925431,"TRIPLE STAR DELI INC","14520","243 RD ST"
"NY",11207,"Kings","Brooklyn",-73.880433056,40.662680455,"LINDEN BITES INC","2228 A","LINDEN BLVD"
"NY",11354,"Queens","Queens",-73.825103358,40.764314342,"SHAN HALAL MEAT & GROCERY INC","141-20","NORTHERN BLVD"
"NY",11378,"Queens","Queens",-73.913091968,40.722247162,"FRESH FIRST INC","57-45","RUST ST"
"NY",10453,"Bronx","Bronx",-73.903199227,40.858436912,"ANGELS & SON FISH MARKET LLC","12","E 183RD STREET"
"NY",10003,"New York","Manhattan",-73.985459308,40.735971355,"5 SENSES DELI","206","3RD AVE"
"NY",10002,"New York","Manhattan",-73.993350032,40.716737612,"CHOPCHEESE DELI 5 CORP","119","HESTER STREET SPACE D"
"NY",11234,"Kings","Brooklyn",-73.926367897,40.610334422,"SGL DELI CORP","4013","AVENUE T"
"NY",11226,"Kings","Brooklyn",-73.9531951,40.655972711,"DORIS MARKET CORP","636","ROGERS AVE"
"NY",11436,"Queens","Queens",-73.788632105,40.672803154,"BOLLA OPERATING CORP","149-20","ROCKAWAY BLVD"
"NY",10040,"New York","Manhattan",-73.92792626,40.864594258,"5B DELI & GROCERY CORP","100","THAYER ST."
"NY",11375,"Queens","Queens",-73.85027237,40.732469228,"DOMEE SUSHI INC","105-35","64TH RD"
"NY",11385,"Queens","Queens",-73.897031655,40.706364671,"ROXANA GOURMET INC","66-78","FRESH POND RD"
"NY",10457,"Bronx","Bronx",-73.893239262,40.848103031,"MURAD 1 DELI GROCERY CORP","2026","LAFONTAINE AVENUE"
"NY",11355,"Queens","Queens",-73.829389025,40.757622859,"BO LUO INC","4120","MAIN STREET B1"
"NY",10458,"Bronx","Bronx",-73.894351541,40.862719645,"MI VIEJA DELI GROCERY & MORE CORP","314","EAST KINGSBRIDGE ROAD"
"NY",11423,"Queens","Queens",-73.779528017,40.713373199,"CEYLON EXPRESS INC","88-01","182ND PLACE"
"NY",10032,"New York","Manhattan",-73.942443046,40.836951412,"DWENDY DELI GROCERY CORP","3872","BROADWAY"
"NY",11230,"Kings","Brooklyn",-73.96391086,40.634147828,"AKTER SEREN","631","RUGBY RD"
"NY",11433,"Queens","Queens",-73.796446302,40.703581167,"2023 GOURMET DELI & GRILL CORP","92-36A","GUY R BREWER BLVD"
"NY",11413,"Queens","Queens",-73.753397978,40.665488493,"BIG LOU 3 GROCERY AND DELI CORP","223-16","S. CONDUIT AVE"
"NY",11366,"Queens","Queens",-73.80405422,40.721915532,"UNION TPK PETROLEUM LLC","164-05","UNION TPKE"
"NY",11234,"Kings","Brooklyn",-73.940340529,40.612526373,"RUBYS BAGELS CORP","3103","QUENTIN RD"
"NY",11385,"Queens","Queens",-73.896840966,40.700722728,"LP BABY & GROCERY INC","60-39","MYRTLE AVENUE"
"NY",11385,"Queens","Queens",-73.895705302,40.703487876,"DUKES CONVENIENCE INC","68-74","FRESH POND ROAD"
"NY",11421,"Queens","Queens",-73.859886748,40.69256458,"LUCKY FARMERS MARKET INC","84-31","JAMAICA AVENUE"
"NY",10001,"New York","Manhattan",-74.003768402,40.753032007,"HAMPTONS MARKETPLACE INC","312","11TH AVE"
"NY",11236,"Kings","Brooklyn",-73.896610464,40.64902734,"CANARSIE FOOD SUPERMARKET CORPORATION","10421","GLENWOOD ROAD"
"NY",10302,"Richmond","Staten Island",-74.137586157,40.632498898,"SAM DELI & CONVENIENCE CORP","392","PORT RICHMOND AVE"
"NY",11434,"Queens","Queens",-73.792009509,40.680693752,"OB DELI INC","116-69","SUTPHIN BLVD"
"NY",11230,"Kings","Brooklyn",-73.973751717,40.613818486,"MR GREEN JUICE & GRILL INC","1601","MCDONALD AVE"
"NY",11230,"Kings","Brooklyn",-73.954786655,40.618285453,"OCEAN FINEST GRILL BASKET INC","1789","OCEAN AVE"
"NY",10029,"New York","Manhattan",-73.941624804,40.798390215,"DIAMOND MINI MARKET CORP","1869 B","LEXINGTON AVENUE"
"NY",11355,"Queens","Queens",-73.821669376,40.756591759,"JY&Y GROCERY INC","42-18","BOWNE ST RM A UNIT 1C"
"NY",11385,"Queens","Queens",-73.90785638,40.699833199,"FRIENDLY MARKET 168 INC","55-16","MYRTLE AVENUE"
"NY",11203,"Kings","Brooklyn",-73.930572343,40.651608254,"NEYMAR FARMS II LLC","878-880","UTICA AVENUE"
"NY",10034,"New York","Manhattan",-73.91492794,40.87079234,"FOOD FINEST GOURMET DELI INC","5085","BROADWAY"
"NY",11224,"Kings","Brooklyn",-73.99923681,40.574905793,"RACO DELI GROCERY CORP","3222","MERMAID AVE"
"NY",10469,"Bronx","Bronx",-73.857234797,40.86563265,"AL REHMAN GROCERY & HALAL MEAT INC","1059","ALLERTON AVE"
"NY",11355,"Queens","Queens",-73.835083774,40.745709744,"M GIL CORP","58-17","COLLEDGE POINT BLVD"
"NY",11358,"Queens","Queens",-73.803959672,40.759625631,"HOLA MARKET INC","42-19","162ND ST"
"NY",10303,"Richmond","Staten Island",-74.168536334,40.628354131,"ROMAN CONVENIENCE INC","451","NORTHFIELD AVE #5"
"NY",11355,"Queens","Queens",-73.825853036,40.745899636,"ZHEN ZHEN GROCERY INC","5717A","MAIN ST"
"NY",11368,"Queens","Queens",-73.868559839,40.747718423,"LUCKY 888 MARKET INC","35-30A","JUNCTION BLVD"
"NY",11355,"Queens","Queens",-73.826099631,40.751831089,"NO NO GROCERY INC","43-29","MAIN ST"
"NY",11230,"Kings","Brooklyn",-73.962410583,40.611240254,"EXPRESS JUICE & DELI CORP","1891","CONEY ISLAND AVE"
"NY",11237,"Kings","Brooklyn",-73.925532305,40.703043468,"FRESH & TASTY SUSHI INC","229","KNICKERBOCKER AVE"
"NY",10452,"Bronx","Bronx",-73.915913065,40.839819364,"TOP TOP DELI CORP","1405","WALTON AVE STORE ONE"
"NY",11368,"Queens","Queens",-73.855258764,40.751969433,"BEST LUCKY MARKET INC","111-17A","ROOSEVELT AVE"
"NY",11105,"Queens","Queens",-73.911422796,40.77532833,"GREEN HOUSE FARMERS MARKET LLC","22-33","31ST ST"
"NY",10019,"New York","Manhattan",-73.979787442,40.766180908,"CENTRAL VALLEY DELI INC","916","SEVENTH AVE"
"NY",10460,"Bronx","Bronx",-73.89511815,40.833939207,"ETS ESSOVALENINI LLC","1458","BOSTON RD"
"NY",11210,"Kings","Brooklyn",-73.950706596,40.635469361,"1444 FLATBUSH MEAT CORP","1444","FLATBUSH AVE"
"NY",11435,"Queens","Queens",-73.807110933,40.701663681,"MR GREEN JUICE BAR & GRILL INC","147-20","JAMAICA AVE"
"NY",11101,"Queens","Queens",-73.942634824,40.748561896,"ICHIBAN NY SUSHI LLC","43-18","CRESCENT ST"
"NY",10467,"Bronx","Bronx",-73.875610695,40.879521296,"266 DELI & GOURMET CORP","266","E GUN HILL RD"
"NY",10304,"Richmond","Staten Island",-74.091874023,40.600124887,"MUKTI 1098 PETROLEUM INC","1098","RICHMOND ROAD"
"NY",10458,"Bronx","Bronx",-73.894064964,40.863715876,"271 CONVENIENCE STORE INC","271","E KINGSBRIDGE RD"
"NY",11433,"Queens","Queens",-73.782357915,40.695261793,"TASTE BUDZ NYC LLC","110-28","MERRICK BLVD"
"NY",10453,"Bronx","Bronx",-73.905470303,40.855646409,"JEROME EXPRESS CONVENIENCE CORP","2130","JEROME AVE."
"NY",11209,"Kings","Brooklyn",-74.028332324,40.630550902,"BAY RIDGE FISHBAR CORP","7608","3RD AVE"
"NY",10303,"Richmond","Staten Island",-74.15707316,40.6262636,"ISLAND MINI MARKET DELI INC","2031","FOREST AVE #4"
"NY",10454,"Bronx","Bronx",-73.921566994,40.804777183,"MUKTI 590 PETROLEUM INC","119","BRUCKNER BLVD"
"NY",11355,"Queens","Queens",-73.814941055,40.739704068,"RED TOP INTERNATIONAL INC","60-05","KISSENA BLVD"
"NY",11222,"Kings","Brooklyn",-73.959492424,40.732016689,"MON AMOUR GRILL AND DELI INC","144","WEST STREET"
"NY",10021,"New York","Manhattan",-73.952696209,40.768008917,"HL DELI CORP","1384","YORK AVE"
"NY",10460,"Bronx","Bronx",-73.887778033,40.831301758,"ROCHELL DELI GROCERY CORP","984","JENNINGS STREET"
"NY",11104,"Queens","Queens",-73.918951421,40.742522651,"K CHOICE FARM INC","45-20","46TH STREET"
"NY",10472,"Bronx","Bronx",-73.878701438,40.828797915,"FIVE STAR CONVENIENCE & DELI CORP","1531","WESTCHESTER AVE STORE 1"
"NY",10459,"Bronx","Bronx",-73.898372675,40.827973304,"FAMOUS 837 GOURMET DELI INC","837","HOME ST"
"NY",10040,"New York","Manhattan",-73.929403745,40.855356092,"1613 GOURMET DELI INC","1613","ST.NICHOLAS AVE"
"NY",11235,"Kings","Brooklyn",-73.948737687,40.59279114,"FAMILY PHARMACY GROUP INC","2108","AVE X"
"NY",10014,"New York","Manhattan",-74.006874484,40.740804025,"PETROSSIAN BOUTIQUE INC","419","WEST 13TH STREET"
"NY",10029,"New York","Manhattan",-73.948261847,40.790459006,"DALILAS FOOD MARKET INC","126","E 103RD ST."
"NY",11385,"Queens","Queens",-73.922412812,40.690515624,"LINDEN DELI CONVENIENCE CORP.","19-38","LINDEN ST"
"NY",11237,"Kings","Brooklyn",-73.930837295,40.70378271,"JC DELI & GRILL II GROCERY CORP","1004","FLUSHING AVENUE"
"NY",11385,"Queens","Queens",-73.906139682,40.696886247,"WYCKOFF MARKET CORP","919","WYCKOFF AVE"
"NY",11233,"Kings","Brooklyn",-73.913978354,40.671760864,"4 J GRILL CORP","1634","EASTERN PKWY"
"NY",11216,"Kings","Brooklyn",-73.950288507,40.670621721,"777 NOSTRAND DELI CORP","777","NOSTRAND AVE"
"NY",10010,"New York","Manhattan",-73.983584025,40.73793226,"3RD AVE FOOD GROUP LLC","275","3RD AVE"
"NY",11203,"Kings","Brooklyn",-73.937369983,40.663441448,"YL DELI MARKET CORP","438","TROY AVENUE"
"NY",11422,"Queens","Queens",-73.739783295,40.659540929,"ROSEDALE DELI MARKET INC","145-01","243RD ST"
"NY",10462,"Bronx","Bronx",-73.852296851,40.83577409,"CASTLE HILL SUPERMARKET INC","1375","CASTLE HILL AVE"
"NY",10019,"New York","Manhattan",-73.98627931,40.767493933,"KITCHEN VALLEY MARKETPLACE INC","863","9TH AVE"
"NY",10029,"New York","Manhattan",-73.939399158,40.79116866,"ALIMENTUS GUATEMIX 502 LLC","339","E 108TH ST"
"NY",11207,"Kings","Brooklyn",-73.905271401,40.688940664,"FIRE HOUSE DELI & GRILL 2 CORP","644","WILSON AVE"
"NY",11220,"Kings","Brooklyn",-74.002514972,40.642071115,"LUCKY THREE LADIES INC","4801","8TH AVE"
"NY",10011,"New York","Manhattan",-73.998864654,40.733759622,"WEST 9TH FINEST DELI LLC","64","W 9TH STREET"
"NY",11354,"Queens","Queens",-73.827787327,40.766258692,"LVK GROUP INC","3426","UNION STREET"
"NY",10035,"New York","Manhattan",-73.937130596,40.806663698,"104 HARLEM DELI CORP","104","E 128TH ST."
"NY",10458,"Bronx","Bronx",-73.894462601,40.860341867,"CHOSEN RX INC","332","EAST 188TH STREET"
"NY",11224,"Kings","Brooklyn",-73.971379555,40.57640167,"76 CIBO CORP","76","W BRIGHTON AVE #C-102"
"NY",11229,"Kings","Brooklyn",-73.951836226,40.599220186,"AVE U SIZZLING GRILL CORP","1922","AVENUE U"
"NY",11222,"Kings","Brooklyn",-73.946756876,40.725013861,"WZ KRAJAN INC","160","NASSAU AVE"
"NY",11212,"Kings","Brooklyn",-73.921122166,40.660631582,"FRIENDLY GOURMET DELI AND GRILL INC","1127","CLARKSON AVE"
"NY",10460,"Bronx","Bronx",-73.887667476,40.837162175,"MYA GOURMET DELI CORP","1718","SOUTHERN BLVD"
"NY",11238,"Kings","Brooklyn",-73.961264945,40.682434463,"DAOFU CHEN","1017","FULTON ST"
"NY",11368,"Queens","Queens",-73.859427587,40.751666511,"TIENDA GUATEMALTECA SABOR CHAPIN CORP","38-22","108TH ST"
"NY",10470,"Bronx","Bronx",-73.872551887,40.896358989,"FAMOUS DELI CORP THE","4201","ONEIDA AVE"
"NY",11434,"Queens","Queens",-73.77522956,40.672914661,"MALEK DELI CORP","137-44","GUY R BREWER BLVD"
"NY",10018,"New York","Manhattan",-73.991381877,40.756124761,"HELLS KITCHEN STORE LLC","304","WEST 40TH ST"
"NY",11432,"Queens","Queens",-73.801607375,40.707741734,"AL FALAH MEATS INC","160-02","HILLSIDE AVE STORE#4"
"NY",11368,"Queens","Queens",-73.868581631,40.748080816,"CC HAPPY LAND INC","40-43","JUNCTION BLVD STORE A"
"NY",11385,"Queens","Queens",-73.9069912,40.702525718,"QUEENS STAR MINI MARKET CORP","719","SENECA AVE"
"NY",10003,"New York","Manhattan",-73.980574838,40.734410771,"FANTASY DELI CORP","327","1ST AVE"
"NY",11211,"Kings","Brooklyn",-73.946129742,40.711564301,"UBI MARKET INC","655","GRAND STREET"
"NY",11234,"Kings","Brooklyn",-73.917548374,40.629178658,"SMOKEY GRILL INC","1977","RALPH AVE"
"NY",11101,"Queens","Queens",-73.928036482,40.738408016,"MEET DELI & GROCERY INC","38-15","GREENPOINT AVE"
"NY",10012,"New York","Manhattan",-73.996665913,40.722035016,"MYK MART LLC","54","SPRING STREET"
"NY",10473,"Bronx","Bronx",-73.861561871,40.814833204,"NATALIA GROCERY CORP","459","TAYLOR AVENUE"
"NY",10457,"Bronx","Bronx",-73.899526109,40.83959695,"ADALYNE DELI GROCERY CORP","551","EAST 172ND ST."
"NY",10022,"New York","Manhattan",-73.971961427,40.75682398,"LEXINGTON DELI & CONVENIENCE CORP","569","LEXINGTON AVE"
"NY",10029,"New York","Manhattan",-73.94270322,40.793970856,"MR MOH DELI CORP","2001","3RD AVE"
"NY",11364,"Queens","Queens",-73.758356587,40.740453955,"ANGIE CONVENIENCE STORE INC","73-10","BELL BLVD"
"NY",11101,"Queens","Queens",-73.924642592,40.754728356,"SELENAS GOURMET LLC","41-28","37TH STREET -"
"NY",10011,"New York","Manhattan",-74.00113397,40.74135128,"CHELSEAS SIGNATURE DELI CORP","134","8TH AVENUE"
"NY",10471,"Bronx","Bronx",-73.900273942,40.905422718,"N DELICATESSEN LLC","5706","MOSHOLU AVE"
"NY",11230,"Kings","Brooklyn",-73.962468334,40.625195913,"BROOKLYN BAKING INC","1321","AVENUE J"
"NY",10027,"New York","Manhattan",-73.95295764,40.81360647,"CHUBBZWAY DELI INC","21","CONVENT AVE"
"NY",10002,"New York","Manhattan",-73.988694052,40.713293781,"LOS MUCHACHOS MEAT MARKET & GROCERY CORP","26","JEFFERSON ST"
"NY",10467,"Bronx","Bronx",-73.86825591,40.875422629,"MANDEEPS CORNER DELI LLC","3401","OLINVILLE AVENUE"
"NY",11221,"Kings","Brooklyn",-73.935211391,40.696815336,"BROADWAY FAMOUS DELI 1 CORP","948","BROADWAY"
"NY",11224,"Kings","Brooklyn",-73.988452737,40.574560543,"TOP DELI CORP","2115","SURF AVE"
"NY",11355,"Queens","Queens",-73.821851431,40.756753697,"BOWNE MINI MARKET CORP","42-14","BOWNE ST"
"NY",11205,"Kings","Brooklyn",-73.955589726,40.691004582,"BEDSTUY GOURMENT DELI INC","994","BEDFORD AVE"
"NY",11417,"Queens","Queens",-73.836794018,40.681938883,"FRESH 2 GO JUICE BAR & SALAD INC","104-02","LIBERTY AVE"
"NY",10027,"New York","Manhattan",-73.95301245,40.808032418,"YDHNY INC","233","ST NICHOLAS AVE"
"NY",10011,"New York","Manhattan",-74.003261381,40.743537783,"CHELSEA DELI & CAF INC","130","9TH AVE"
"NY",10027,"New York","Manhattan",-73.95301245,40.808032418,"JAY SUSHI INC","233","ST NICHOLAS AVE"
"NY",11215,"Kings","Brooklyn",-73.983490064,40.664833724,"CHEESE PLATE PARK SLOPE LLC","400","7TH AVE"
"NY",11212,"Kings","Brooklyn",-73.90843406,40.668817601,"BELMONT MINI MARKET NY INC","51","BELMONT AVE"
"NY",11221,"Kings","Brooklyn",-73.927582602,40.691254111,"PATCHEN DELI AND GRILL CORP","33","PATCHEN AVENUE"
"NY",11221,"Kings","Brooklyn",-73.926435706,40.68543728,"LA NATURAL GOURMET CORP","177","PATCHEN AVENUE"
"NY",11101,"Queens","Queens",-73.928991097,40.742435437,"1-800-FLOWERS.COM INC","36-01","47TH AVE"
"NY",11379,"Queens","Queens",-73.879178955,40.712642926,"METRO KING DELI CORP","73-02","METROPOLITAN AVE"
"NY",10029,"New York","Manhattan",-73.943849864,40.79889183,"PAMELA GROCERY STORE CORP","1626","PARK AVE"
"NY",10456,"Bronx","Bronx",-73.902596484,40.836105007,"IN & OUT DELI 1 & GROCERY INC","3742","3RD AVE"
"NY",10032,"New York","Manhattan",-73.940686534,40.834425106,"160 GROCERY INC","2011C","AMSTERDAM AVE"
"NY",11414,"Queens","Queens",-73.839305236,40.658090441,"PKSD INC","159-35","CROSS BAY BLVD"
"NY",10029,"New York","Manhattan",-73.937724872,40.796769155,"SMS 2ND CS LLC","2256","2ND AVE."
"NY",10473,"Bronx","Bronx",-73.867674542,40.822324194,"ROSEDALE DELI & JUICE BAR CORP","843","SOUNDVIEW AVE"
"NY",11213,"Kings","Brooklyn",-73.928019132,40.670645736,"HAEMAH FOOD CORP","237","ROCHESTER AVE"
"NY",10011,"New York","Manhattan",-73.998202483,40.745011447,"MADISON SQUARE CONVIENENCE CORP","266","W 23RD ST"
"NY",10452,"Bronx","Bronx",-73.925751491,40.840244117,"169 STREET MATANZA DELI GROCERY INC","157","W 169TH STREET"
"NY",10027,"New York","Manhattan",-73.959595437,40.81436696,"JOE M MINIMARKET INC","3149","BROADWAY"
"NY",10454,"Bronx","Bronx",-73.917209578,40.807490112,"NOAH DELI AND GROCERY CORP","229","SAINT ANNS AVE"
"NY",10030,"New York","Manhattan",-73.940198288,40.815634136,"NY CITY GRILL CORP","101","W 137TH STREET"
"NY",11214,"Kings","Brooklyn",-73.997692528,40.611907789,"NEW JOJO GROCERY INC","7718","18TH AVE"
"NY",10031,"New York","Manhattan",-73.955215809,40.820379174,"MAXS GOURMET DELI CORP","3345","BROADWAY"
"NY",11236,"Kings","Brooklyn",-73.912828944,40.635491363,"ALSALAM MARKET CORP","8002","FLATLANDS AVE."
"NY",11206,"Kings","Brooklyn",-73.93530305,40.696915748,"AFS MARKET INC","1102","MYRTLE AVE"
"NY",11417,"Queens","Queens",-73.851347013,40.674953866,"PITKIN CONVENIENCE 1 CORP","85-02","PITKIN AVE"
"NY",11368,"Queens","Queens",-73.866276692,40.757425004,"102 BEBE SHOP INC","102-06","NORTHERN BLVD"
"NY",11368,"Queens","Queens",-73.859250897,40.745702326,"EL GUALACENITO CAFE CORP","104-04","47TH AVE STORE B"
"NY",11218,"Kings","Brooklyn",-73.979500194,40.642088927,"TAKISHA GROCERY CORP","490","MCDONALD AVE"
"NY",11417,"Queens","Queens",-73.834468543,40.683495906,"EURO FOOD PLUS USA INC","106-19","LIBERTY AVE"
"NY",10075,"New York","Manhattan",-73.955511439,40.77171397,"SOMOS BRAZIL CORP","304","EAST 77TH STREET UNIT 02"
"NY",10451,"Bronx","Bronx",-73.920148273,40.815862627,"CAZARES GROCERY LLC","344","E 148TH STREET"
"NY",11102,"Queens","Queens",-73.915010418,40.772192954,"PLATA FOOD CORP","31-05","24TH AVE"
"NY",11422,"Queens","Queens",-73.745086609,40.656701434,"J & J SUPER MARKET CORP","147-26","BROOKVILLE BLVD"
"NY",11212,"Kings","Brooklyn",-73.915349466,40.661732336,"YEMEN FOOD CORP","779","SARATOGA AVE"
"NY",10458,"Bronx","Bronx",-73.885695633,40.858910196,"NEW BEST GOURMET DELI CORP","573","EAST FORDHAM RD"
"NY",10467,"Bronx","Bronx",-73.865090149,40.865636757,"ALLERTON HALAL MEAT MARKET INC","755","ALLERTON AVE"
"NY",11207,"Kings","Brooklyn",-73.89670937,40.67190168,"BUY & GO GROCERY INC","2053","PITKIN AVE"
"NY",11208,"Kings","Brooklyn",-73.868505104,40.684591546,"3442 DELI MINI MARKET CORP","3442","FULTON STREET"
"NY",11230,"Kings","Brooklyn",-73.966145392,40.63079624,"ZAMZAM GROCERY & MEATS LLC","1101","CONEY ISLAND AVE"
"NY",11004,"Queens","Queens",-73.717251985,40.743889572,"SLAK CORPORATION","253-02","UNION TPKE"
"NY",10013,"New York","Manhattan",-73.996306245,40.71746252,"AMAZE MEAT MARKET INC","62","ELIZABETH ST."
"NY",11207,"Kings","Brooklyn",-73.911325733,40.683539952,"COOPER DELI INC","1717","BROADWAY"
"NY",11236,"Kings","Brooklyn",-73.909800227,40.637566597,"SOTO DELI & GRILL CORP","8416","FLATLANDS AVENUE"
"NY",10029,"New York","Manhattan",-73.945761525,40.792202526,"EL BARRIO CONVENIENCE SHOP INC","153","E 106TH STREET"
"NY",11224,"Kings","Brooklyn",-73.997722452,40.577371959,"FLAMMING GRILL CORP","3038","NEPTUNE AVE"
"NY",11004,"Queens","Queens",-73.698861802,40.739935661,"PREMIUM OF JACKSON HEIGHTS LLC","256-13","HILLSIDE AVE"
"NY",11229,"Kings","Brooklyn",-73.94682829,40.600019903,"BEDFORD FLAMING GRILL INC","2423","AVE U"
"NY",11419,"Queens","Queens",-73.816323063,40.689148871,"PABLA IN & OUT INC","128-22","LIBERTY AVE"
"NY",11101,"Queens","Queens",-73.953158555,40.746044643,"YASHI FOOD INC","46-30","VERNON BLVD"
"NY",11235,"Kings","Brooklyn",-73.949616195,40.588869751,"OCEAN AVE DELI & BAGEL INC","2970","OCEAN AVE"
"NY",10019,"New York","Manhattan",-73.989660821,40.767305466,"UNITED CORP 1","814","10TH AVE"
"NY",10301,"Richmond","Staten Island",-74.085733022,40.634171088,"SWARA DELI & GROCERY INC","325","VICTORY BLVD"
"NY",10304,"Richmond","Staten Island",-74.075174087,40.626124586,"LEGACY AFRICANA MARKET INC","651","BAY STREET"
"NY",10035,"New York","Manhattan",-73.934215873,40.797347674,"AB TWINS GROCERY INC","2296","1ST AVE"
"NY",10002,"New York","Manhattan",-73.98598083,40.718118949,"DELANCEY GRILL CORP","158","DELANCEY ST"
"NY",10312,"Richmond","Staten Island",-74.16537971,40.544897574,"RICHMOND CONVENIENCE STORE CORP","3829","RICHMOND AVE"
"NY",11223,"Kings","Brooklyn",-73.962973847,40.606864859,"FLAMING GRILL & DELI CAFE CORP","924","KINGS HWY"
"NY",10303,"Richmond","Staten Island",-74.166569772,40.635419237,"SOUTH AVE GOURMET DELI INC","182","SOUTH AVE"
"NY",11224,"Kings","Brooklyn",-73.983551084,40.576646547,"CONEY ISLAND FINEST DELI INC","1530","MERMAID AVE"
"NY",10010,"New York","Manhattan",-73.982748852,40.741850129,"LEX GRILL & JUICE BAR CORP","97","LEXINGTON AVENUE"
"NY",10302,"Richmond","Staten Island",-74.134841754,40.636144732,"PORT MARKET CORP THE","210","PORT RICHMOND AVE"
"NY",10468,"Bronx","Bronx",-73.888768523,40.872632084,"BEDFORD DELI 1 INC","26","BEDFORD PARK BLVD E"
"NY",10460,"Bronx","Bronx",-73.887051909,40.844471613,"SABANA BUEY DELI GROCERY CORP","804","E 178TH STREET"
"NY",11212,"Kings","Brooklyn",-73.916326628,40.654980168,"K&G MARKET LLC","9420","CHURCH AVE (#9406)"
"NY",11372,"Queens","Queens",-73.875134435,40.748694288,"ZAMAN GOURMET DELI CORP","91-09","ROOSEVELT AVE"
"NY",10454,"Bronx","Bronx",-73.913181654,40.807384123,"ILUSION DELI GROCERY CORP","662","EAST 141ST ST"
"NY",11229,"Kings","Brooklyn",-73.953712766,40.610487475,"KING DELI & GRILL 3 CORP","1932","KINGS HWY"
"NY",10307,"Richmond","Staten Island",-74.248522825,40.510579003,"CB 180 CORP","180","MAIN ST."
"NY",10309,"Richmond","Staten Island",-74.236934257,40.537794205,"HY STAR 4278 CORP","4278","ARTHUR KILL RD"
"NY",10474,"Bronx","Bronx",-73.874026935,40.808356842,"CULINART INC","155","FOOD CENTER DRIVE"
"NY",11373,"Queens","Queens",-73.877222787,40.737197418,"FUJI SHOP INC","86-55","BROADWAY STORE#B-1-B-2"
"NY",10470,"Bronx","Bronx",-73.867375056,40.897686263,"SEANS QUALITY DELI LLC","4273","KATONAH AVENUE"
"NY",10016,"New York","Manhattan",-73.981389894,40.750159696,"MADISON CAFE & GRILL CORPORATION","244","MADISON AVE"
"NY",10301,"Richmond","Staten Island",-74.086073159,40.636678534,"PRIORITY DELI & GROCERY CORP","488","JERSEY STREET"
"NY",10468,"Bronx","Bronx",-73.902895718,40.86916822,"FM GROCERY & CANDY CORP","131","WEST KINGSBRIDGE RD."
"NY",10032,"New York","Manhattan",-73.941668223,40.832822277,"2 CAMPUS DELI CORP","469","W 157TH STREET"
"NY",10017,"New York","Manhattan",-73.974355298,40.753364433,"SOLIMANS GROCERY CORP","129","E 45TH ST #6"
"NY",11373,"Queens","Queens",-73.877222787,40.737197418,"CHAW SU KYAW INC","86-55","BROADWAY STORE#B11"
"NY",11419,"Queens","Queens",-73.833254927,40.68376442,"SUN KEY FOOD LLC","108-16","LIBERTY AVE"
"NY",10473,"Bronx","Bronx",-73.85853368,40.822828505,"ALDI INC","843","WHITE PLAINS RD"
"NY",11212,"Kings","Brooklyn",-73.921269101,40.660535945,"MARACAS BAY MARKET LLC","1123","CLARKSON AVENUE STORE 4"
"NY",10467,"Bronx","Bronx",-73.867099843,40.87217564,"Z3 MARKET AND DELI CORP","3200","WHITE PLAINS RD"
"NY",10035,"New York","Manhattan",-73.935071916,40.801107418,"2ND AVENUE FANTASY FOOD INC","2383","2ND AVE"
"NY",10010,"New York","Manhattan",-73.990059213,40.741210757,"TEN ICHI MART 5TH AVENUE INC","178","5TH AVENUE"
"NY",11225,"Kings","Brooklyn",-73.961807086,40.660842723,"A&P SUSHI LLC","33","LINCOLN RD"
"NY",10458,"Bronx","Bronx",-73.887820111,40.853500599,"413 DELI CORP","2315","HUGHES AVE"
"NY",11206,"Kings","Brooklyn",-73.940903206,40.700000543,"BETWEEN THE BUN BROOKLYN CORP","774","BROADWAY"
"NY",11368,"Queens","Queens",-73.868581631,40.748080816,"WAPE MARKET CORP","40-43","JUNCTION BLVD"
"NY",11419,"Queens","Queens",-73.83224298,40.684162141,"109-18 LIBERTY AVENUE CORP","109-18","LIBERTY AVE"
"NY",11208,"Kings","Brooklyn",-73.883114929,40.671285233,"DEYVI GROCERY DELI CORP","965","SUTTER AVENUE"
"NY",11223,"Kings","Brooklyn",-73.981761464,40.595918219,"MANGO MAS DELI CORPORATION","72","AVENUE U"
"NY",10463,"Bronx","Bronx",-73.902496991,40.878205002,"231 BIG APPLE DELI GROCERY CORPORATION","141","W 231ST ST"
"NY",10128,"New York","Manhattan",-73.946799464,40.780503322,"1773 EXPRESS DELI CORPORATION","1773","1ST AVE"
"NY",11373,"Queens","Queens",-73.86788719,40.742010894,"IVILUX GROCERY CORP","94-64","CORONA AVE"
"NY",11212,"Kings","Brooklyn",-73.903498712,40.657339171,"TO THE MOOD DELI INC","41","NEW LOTS AVE"
"NY",10031,"New York","Manhattan",-73.949344872,40.825799331,"EL AGUILA REAL MEAT MARKET CORP","528","W 145TH ST  #1"
"NY",11217,"Kings","Brooklyn",-73.982305533,40.686125979,"457 FOOD CORP","457","ATLANTIC AVENUE"
"NY",10468,"Bronx","Bronx",-73.906516784,40.862536962,"DARIOS DELIGHTS CORP","2349","ANDREW AVE NORTH"
"NY",11206,"Kings","Brooklyn",-73.942008863,40.711203167,"DYLAN MARKET AND DELI CORP","276","HUMBOLDT STREET"
"NY",10301,"Richmond","Staten Island",-74.078579319,40.638413169,"LA ECONOMICA FRUITS & MEAT MARKET CORP","73","VICTORY BLVD"
"NY",11223,"Kings","Brooklyn",-73.970726521,40.604231726,"RJYY LLC","508","KINGS HWY"
"NY",10310,"Richmond","Staten Island",-74.117377053,40.62909748,"SI TRADERS INC","843","FOREST AVE"
"NY",11417,"Queens","Queens",-73.83979038,40.674112449,"LEGACY MINI MART CORP","96-19","LINDEN BLVD"
"NY",10466,"Bronx","Bronx",-73.860372898,40.887595332,"TIM LOTTERY AND GROCERY CORP","3968","WHITE PLAINS RD"
"NY",10451,"Bronx","Bronx",-73.913612735,40.821304284,"MI GERIZIN MARKET CORP","777","ELTON AVE"
"NY",11101,"Queens","Queens",-73.9465827,40.739965458,"AFRICA PRODUCT DEVELOPMENT CENTER LLC","23-23","BORDEN AVE"
"NY",10001,"New York","Manhattan",-73.989176095,40.750230691,"ELITE 128 LLC","128","W 34TH ST."
"NY",10037,"New York","Manhattan",-73.941773583,40.812407271,"NEW YORK SEAFOOD MARKET CORP","454","LENOX AVENUE"
"NY",10456,"Bronx","Bronx",-73.907643395,40.83623631,"ABU AND BROTHERS CORP","1393","WEBBSTER AVE"
"NY",10451,"Bronx","Bronx",-73.922882198,40.816760539,"HALAL LINCOLN DELI CORP","522","MORRIS AVE"
"NY",11208,"Kings","Brooklyn",-73.869027716,40.68444503,"EL CONUQUITO 3432 CORP","3432","FULTON ST"
"NY",10458,"Bronx","Bronx",-73.883826972,40.854109838,"717 DELI GROCERY CORP","717","E 187TH ST"
"NY",11693,"Queens","Queens",-73.812826217,40.587525419,"24 7 SANDWICH SPOT CORP","8718","ROCKAWAY BEACH BLVD"
"NY",11213,"Kings","Brooklyn",-73.939157004,40.67360723,"DELI 200 ALBANY CORP","200","ALBANY AVE"
"NY",10304,"Richmond","Staten Island",-74.092469306,40.600897866,"TODT HILL MINI MART INC","1060","RICHMOND RD"
"NY",11101,"Queens","Queens",-73.946140052,40.745802112,"TRADER JOES EAST INC","22-43","JACKSON AVE"
"NY",10024,"New York","Manhattan",-73.975612293,40.789705916,"2401 FOOD CORP","2401","BROADWAY"
"NY",10027,"New York","Manhattan",-73.950693688,40.811147178,"HARLEM FRAGRANCES INC","2355","FREDERICK DOUGLAS BLVD"
"NY",10029,"New York","Manhattan",-73.946417744,40.789494501,"ONE 4 ALL MINI MARKET & DELI INC","1862","3RD AVE"
"NY",11434,"Queens","Queens",-73.79257973,40.684710066,"LA FAMILIA GROCERY CORP","115-05","SUTPHIN BLVD."
"NY",11221,"Kings","Brooklyn",-73.923092836,40.698160003,"FAT CAT NY LLC","133","STANHOPE ST COMMERCAIL UNIT 2"
"NY",10459,"Bronx","Bronx",-73.89652874,40.821155799,"GINO DELI GROCERY CORP","935","E 163RD ST"
"NY",11212,"Kings","Brooklyn",-73.90648795,40.670448761,"RODRIGUEZ FAMILY GROCERY CORP","1801","PITKIN AVE"
"NY",10458,"Bronx","Bronx",-73.889923382,40.86966489,"198 99 PLUS CORP","223","E 198TH STREET"
"NY",11249,"Kings","Brooklyn",-73.968264756,40.710951751,"DOMEE SUSHI INC","11","BROADWAY"
"NY",11434,"Queens","Queens",-73.792619081,40.682350198,"HJ MART INC","119-24","SUTPHIN BLVD"
"NY",10301,"Richmond","Staten Island",-74.087554744,40.638085353,"REAL GROCERY & DELI CORP","418","JERSEY STREET"
"NY",11212,"Kings","Brooklyn",-73.903364937,40.656735841,"GRAB & GO GROCERY INC 1","879","MOTHER GASTON BLVD"
"NY",10301,"Richmond","Staten Island",-74.086147842,40.633670227,"RED & BLACK CONVENIENCE INC","353","VICTORY BLVD"
"NY",10314,"Richmond","Staten Island",-74.122355317,40.613206397,"MANOR CONVENIENCE CORP","1763","VICTORY BLVD"
"NY",11691,"Queens","Queens",-73.775519372,40.595575189,"43-21 DELI & GROCERY CORP","43-21","BEACH CHANNEL DRIVE"
"NY",11226,"Kings","Brooklyn",-73.962782823,40.641790363,"1626 GOURMET DELI CORP","1626","CORTELYOU ROAD"
"NY",11223,"Kings","Brooklyn",-73.980002438,40.605043806,"284 KINGS HWY INC","284","KINGS HWY"
"NY",11211,"Kings","Brooklyn",-73.960560027,40.712949201,"728 ORGANIC DELI GROCERY INC","728","DRIGGS AVE"
"NY",10013,"New York","Manhattan",-73.996161825,40.719069247,"GOLDEN STEAMER I INC","210","GRAND ST"
"NY",10304,"Richmond","Staten Island",-74.081456407,40.624152241,"LUX CONVENIENCE CORP","197","BROAD ST."
"NY",10022,"New York","Manhattan",-73.96556637,40.760212029,"DISALCUMBRES CORP","238","E 58TH STREET"
"NY",11224,"Kings","Brooklyn",-73.98088304,40.575064379,"PEPPER PALACE INC","3011","STILLWELL AVE"
"NY",11368,"Queens","Queens",-73.865645702,40.7440829,"DELI GROCERY ORIENTAL CORP","97-56","CORONA AVENUE"
"NY",10460,"Bronx","Bronx",-73.867448398,40.838136026,"STOP 1 KING DELI & GROCERY CORP","1803","MANSION ST"
"NY",11432,"Queens","Queens",-73.807884247,40.716648386,"PARSONS DELI & GROCERY LLC","82-69","PARSONS BLVD"
"NY",11208,"Kings","Brooklyn",-73.870773247,40.678988831,"CRESENT DELI & CONVENIENCE INC","403","CRESENT ST"
"NY",10460,"Bronx","Bronx",-73.883210231,40.845224434,"868 JUQUILA BAKERY AND DELI GROCERY CORP","868","EAST 180TH ST."
"NY",10302,"Richmond","Staten Island",-74.134226355,40.632755091,"SIN FRONTERA DELI AND GROCERY STORE LLC","340","HEBERTON AVENUE"
"NY",10304,"Richmond","Staten Island",-74.076414776,40.625601556,"MEXICO AZTECA FOODS CORP","33","BROAD ST"
"NY",11212,"Kings","Brooklyn",-73.924546258,40.664030612,"NAS SUPER DELI INC","1067","RUTLAND RD"
"NY",11214,"Kings","Brooklyn",-73.992780565,40.601535184,"86 FOOD MARKET INC","2231","86TH ST"
"NY",11226,"Kings","Brooklyn",-73.949511253,40.648792102,"FROZEN LAVA 1 CORP","1528","NOSTRAND AVE"
"NY",10003,"New York","Manhattan",-73.991402664,40.730848965,"WEGMANS FOOD MARKETS INC","770","BROADWAY"
"NY",11222,"Kings","Brooklyn",-73.944274659,40.725741745,"CAMPBELL SISTERS DEUX LLC","209","NASSAU AVE"
"NY",10036,"New York","Manhattan",-73.992711666,40.758035668,"ESAM FOOD CORP","572","9TH AVE"
"NY",11229,"Kings","Brooklyn",-73.960066584,40.598565978,"KING 1201 DELI & GRILL INC","1201","AVENUE U"
"NY",10310,"Richmond","Staten Island",-74.106224679,40.634614826,"BABA SHAWARMA CORP","714","CASTLETON AVE"
"NY",10034,"New York","Manhattan",-73.918242899,40.868227478,"AMEER DELI & GRILL CORP","4996","BROADWAY, STORE 1"
"NY",11354,"Queens","Queens",-73.819548755,40.764973327,"JINBO HOLDINGS INC","146-26","NORTHERN BLVD"
"NY",11233,"Kings","Brooklyn",-73.92461742,40.67730214,"EXPRESS 24 DELI CORP","53","BUFFALO AVENUE"
"NY",11365,"Queens","Queens",-73.783619811,40.733354525,"FRESH MEADOWS FOOD MART INC","69-74","188TH ST"
"NY",11212,"Kings","Brooklyn",-73.913518355,40.657224632,"BIG CORNER DELI GROCERY INC","2314","STRAUSS STREET"
"NY",11355,"Queens","Queens",-73.825735645,40.750382146,"GOOD FORTUNE SUPERMARKET OF NY INC","42-76","MAIN ST"
"NY",10467,"Bronx","Bronx",-73.867819465,40.877210573,"ABBY MART LLC","688","E GUN HILL RD"
"NY",11229,"Kings","Brooklyn",-73.946195289,40.600095047,"RIGHTWAY PHARMACY INC","2511","AVENUE U"
"NY",10467,"Bronx","Bronx",-73.87995403,40.87504536,"BUS STOP MINI MARKET 1 CORP","271","E 206TH STREET"
"NY",11385,"Queens","Queens",-73.907755964,40.697799037,"ITZELS TAQUERIA DELI CORP","853","WYCKOFF AVE"
"NY",10075,"New York","Manhattan",-73.959887463,40.773852235,"RSJ GROUP CORP","1102","LEXINGTON AVE"
"NY",11206,"Kings","Brooklyn",-73.936254854,40.697695394,"ACATLAN MINI FRUIT & GROCERY MARKET CORP","915","BROADWAY"
"NY",11355,"Queens","Queens",-73.834290008,40.755580231,"41 AVE ASIAN CONVENIENCE STORE INC","41-09","HAIGHT STREET"
"NY",11368,"Queens","Queens",-73.868458082,40.746556064,"S&H MINI FOOD MART INC","41-36","JUNCTION BLVD"
"NY",11420,"Queens","Queens",-73.81836171,40.67584524,"119 A&S DELI CORP","119-20","ROCKAWAY BLVD"
"NY",10455,"Bronx","Bronx",-73.902056186,40.819146783,"THOMAS LEKISHA","805","PROSPECT AVENUE"
"NY",11372,"Queens","Queens",-73.889697657,40.749073066,"GJHS ANDY BAKERY INC","76-10","37TH AVE"
"NY",11420,"Queens","Queens",-73.807162565,40.674726297,"SK SWEETS DISTRIBUTOR INC","131-06","ROCKAWAY BLVD"
"NY",11212,"Kings","Brooklyn",-73.908473204,40.660244883,"GGJ&G FOOD CORP","800","ROCKAWAY AVENUE"
"NY",11211,"Kings","Brooklyn",-73.954429586,40.707091843,"SAVOURY INC","394","BROADWAY"
"NY",11106,"Queens","Queens",-73.939589511,40.765823042,"MOKAFE CORP","33-49","VERNON BLVD"
"NY",11207,"Kings","Brooklyn",-73.909983623,40.687298733,"EVERGREEN FOOD MART CORP","661","EVERGREEN AVE"
"NY",10456,"Bronx","Bronx",-73.915826312,40.834146031,"HONOR GROCERY & DELI CORP","1217","SHERMAN AVE"
"NY",10303,"Richmond","Staten Island",-74.146157994,40.633913763,"MI PUEBLO CUISINE & PANADERIA CORP","166","MORNINGSTAR RD"
"NY",11101,"Queens","Queens",-73.944497031,40.746462606,"TESOLIFE LIC INC","2429","JACKSON AVE"
"NY",11205,"Kings","Brooklyn",-73.971195404,40.698121363,"TRANSMITTER BREWING LLC","141","FLUSHING AVE BLDG 77"
"NY",11372,"Queens","Queens",-73.89452689,40.750644757,"APAN BAZAAR INC","71-10","35TH AVE"
"NY",11432,"Queens","Queens",-73.774473059,40.714749047,"SRK RETAIL INC","187-20","HILLSIDE AVE"
"NY",10027,"New York","Manhattan",-73.95301245,40.808032418,"LM V INC","233","ST NICHOLAS AVE"
"NY",10467,"Bronx","Bronx",-73.878044465,40.872638789,"204 DELI GROCERY CORP","319","E 204TH STREET"
"NY",10453,"Bronx","Bronx",-73.904936376,40.858829017,"LOLYS PHARMACY INC","21","W 183RD STREET"
"NY",10035,"New York","Manhattan",-73.93924887,40.802153857,"1 OCEAN DELI CORP","1990","LEXINGTON AVE"
"NY",10035,"New York","Manhattan",-73.934031554,40.797031466,"AB FRESH DELI GROCERY JUICE BAR 1 INC","402","E 118TH STREET"
"NY",10026,"New York","Manhattan",-73.959283872,40.801141779,"321 W DELI CORP","321","W 110TH STREET"
"NY",11234,"Kings","Brooklyn",-73.936231972,40.62227,"FLATBUSH FLAMING GRILL INC","1953","FLATBUSH AVE"
"NY",11366,"Queens","Queens",-73.788936117,40.726510156,"URBAN DELI & CONVENIENCE CORP","17902","UNION TPKE"
"NY",11212,"Kings","Brooklyn",-73.911076455,40.658921758,"874 DELI GROCERY CORP","874","THOMAS S BOYLAND STREET"
"NY",11221,"Kings","Brooklyn",-73.936828931,40.691230181,"SCARLETT GROCERY LLC","158","LEWIS AVENUE"
"NY",11233,"Kings","Brooklyn",-73.910940501,40.674629277,"OCH DELI CORP","231","ROCKAWAY AVE"
"NY",10037,"New York","Manhattan",-73.941531433,40.813448409,"ARKAN FOOD CORP","477","MALCOLM BLVD"
"NY",10308,"Richmond","Staten Island",-74.162927919,40.560302716,"ARMSTRONG AUTO CENTER INC","630","ARTHUR KILL RD"
"NY",10461,"Bronx","Bronx",-73.851528817,40.850857366,"DOLLAR TREE STORES INC","1820","WILLIAMSBURG RD"
"NY",10029,"New York","Manhattan",-73.944254962,40.787838991,"102 FAMILY ORGANIC DELI CORP","1980","2ND AVE"
"NY",11212,"Kings","Brooklyn",-73.906027365,40.667881384,"361 BROWNSVILLE CONVENIENCE CORP","361","SUTTER AVE"
"NY",11221,"Kings","Brooklyn",-73.939339478,40.688780109,"EVERYTHING MOVING CONVENIENCE STORE LLC","258","MARCUS GARVEY BLVD"
"NY",11220,"Kings","Brooklyn",-74.003843839,40.644642222,"EL QUETZALITO 7 CORP","4604","7TH AVENUE"
"NY",11220,"Kings","Brooklyn",-74.012354908,40.636454821,"MY FAMILY MARKET INC","6022","7TH AVE"
"NY",10467,"Bronx","Bronx",-73.873450097,40.878732878,"TIMS CANDY & GROCERY CORP","3374","HULL AVE"
"NY",10451,"Bronx","Bronx",-73.926121552,40.825269679,"NEW STOP GROCERY INC","120","E 157TH STREET"
"NY",11377,"Queens","Queens",-73.917893038,40.73900837,"JOY BABY & GROCERY INC","47-18","48TH AVENUE"
"NY",11235,"Kings","Brooklyn",-73.951309674,40.585290762,"BAY GOURMET DELI & JUICE BAR INC","1725","SHEEPSHEAD BAY RD"
"NY",10462,"Bronx","Bronx",-73.865952312,40.854569585,"MI FAVORITA FRUIT MEAT MARKET CORP","745-747","LYDIG AVE"
"NY",10014,"New York","Manhattan",-74.001696144,40.736868428,"79 GREENWICH INCORPORATED","79","GREENWICH AVE"
"NY",10029,"New York","Manhattan",-73.947460285,40.790873282,"1642 LEX LLC","1642","LEXINGTON AVE."
"NY",11357,"Queens","Queens",-73.809265082,40.788509082,"HANDSOME SEAFOOD CORP","153-55","CROSS ISLAND PKWY"
"NY",10473,"Bronx","Bronx",-73.856410605,40.811515102,"CASA AMIGOS DELI & GROCERY CORP","301","SOUNDVIEW AVE"
"NY",10031,"New York","Manhattan",-73.952010234,40.819538092,"NEW AMSTERDAM DELI CORP","1536","AMSTERDAM AVE"
"NY",11231,"Kings","Brooklyn",-73.999526405,40.683549885,"ALHELAL CORP","531","HENRY STREET"
"NY",11205,"Kings","Brooklyn",-73.958926781,40.698602561,"REB SHAYALAS MEALS INC","392","FLUSHING AVE"
"NY",10035,"New York","Manhattan",-73.932911313,40.795699666,"FINE DELI CORP","315","PLEASANT AVE"
"NY",11229,"Kings","Brooklyn",-73.941469991,40.597228771,"MUSAED DELI INC","3554","NOSTRAND AVE"
"NY",11368,"Queens","Queens",-73.859751464,40.750236726,"CARLOS CARNICERIA DELI CORP","104-54","ROOSEVELT AVE"
"NY",10473,"Bronx","Bronx",-73.855261713,40.8094024,"MY WAY SUPERMARKET CORP","200","SOUNDVIEW AVENUE"
"NY",10455,"Bronx","Bronx",-73.916868099,40.817688289,"616 SUPERMRKET CORP","616","MELROSE AVENUE"
"NY",10473,"Bronx","Bronx",-73.874666138,40.822599205,"BRUCKNER JUICE BAR & GROCERY INC","1616","BRUCKNER BLVD"
"NY",11368,"Queens","Queens",-73.864793849,40.757543566,"103 DELI GROCERY CORP","103-22","NORTHERN BLVD"
"NY",10461,"Bronx","Bronx",-73.830912142,40.848589669,"NONAS EUROPEAN MARKET INC.","3071","WESTCHESTER AVE"
"NY",11416,"Queens","Queens",-73.850067935,40.684952219,"91 UNION FAMILY DELI CORP","91-02","97TH AVE"
"NY",10019,"New York","Manhattan",-73.981362318,40.764024496,"HEAVEN ON 7TH MARKETPLACE INC","850","7TH AVENUE"
"NY",11433,"Queens","Queens",-73.794347641,40.69338827,"RINCONCITO CENTROAMERICANO CORP","108-55","157TH STREET"
"NY",11205,"Kings","Brooklyn",-73.959150777,40.694034095,"SWEET PISTACHIO LLC","881","KENT AVE#"
"NY",11428,"Queens","Queens",-73.732366987,40.720536793,"SHAMBHU 22201 INC","222-01","JAMAICA AVE"
"NY",11435,"Queens","Queens",-73.808582962,40.706249839,"AMH SUPERMARKET LLC","148-11","HILLSIDE AVE"
"NY",10005,"New York","Manhattan",-74.008740547,40.705416845,"ASARO FARMS LLC","85","BEAVER ST"
"NY",11378,"Queens","Queens",-73.892033777,40.727746613,"MIMI AND COCO BAKERY & BAGELS STORE INC","71-02","GRAND AVE"
"NY",10462,"Bronx","Bronx",-73.860340125,40.84784491,"BRONXDALE VEGS & MEAT CORP","1859","BRONXDALE AVE"
"NY",11411,"Queens","Queens",-73.74357552,40.702757393,"COLFAX DELI & GROCERY INC","114-01","COLFAX STREET"
"NY",10452,"Bronx","Bronx",-73.918906326,40.835257722,"DINOAH MARKET CORP","111","EAST 167TH STREET"
"NY",11207,"Kings","Brooklyn",-73.896347775,40.658045304,"ISH DELI GROCERY CORP","1789","LINDEN BLVD"
"NY",11236,"Kings","Brooklyn",-73.912190243,40.636415091,"YK DISCOUNT STORE LLC","8119","FLATLANDS AVE"
"NY",11372,"Queens","Queens",-73.887417863,40.7555045,"AA NY MARKET CORP","79-23","NORTHERN BLVD"
"NY",11220,"Kings","Brooklyn",-74.009327197,40.642818823,"MING XING GROCERY INC","5124","6TH AVE"
"NY",11208,"Kings","Brooklyn",-73.87032448,40.675516962,"ASFC INC","2754","PITKIN AVENUE"
"NY",11214,"Kings","Brooklyn",-73.990045969,40.599882566,"J VILLAGE MARKET INC","2357-2359","86TH STREET"
"NY",11226,"Kings","Brooklyn",-73.961715053,40.636177631,"USA DELI & GRILL INC","1624","NEWKIRK AVE"
"NY",11432,"Queens","Queens",-73.802637092,40.714482209,"QUEENS ORGANIC DELI I INC","84-28","164TH STREET"
"NY",11216,"Kings","Brooklyn",-73.944997179,40.680270214,"K&S GROCSERY DELI CORP","1403","FULTON ST"
"NY",11221,"Kings","Brooklyn",-73.912000309,40.692779157,"NATURAL FARM MARKET CORP","472","WILSON AVE"
"NY",11211,"Kings","Brooklyn",-73.944591747,40.71480508,"ONE LOVE DELI CORP 1","339","GRAHAM AVE"
"NY",11233,"Kings","Brooklyn",-73.914209275,40.680884314,"HEALTHY FRIENDS DELI & JUICE BAR CORP","116","THOMAS S BOYLAND ST"
"NY",11233,"Kings","Brooklyn",-73.920974645,40.685988264,"K STAR DELI CORP","865","HANCOCK ST"
"NY",11433,"Queens","Queens",-73.786396819,40.689709704,"KAZI DELI & JUICE BAR I CORP","112-44","GUY R BREWER BLVD"
"NY",11211,"Kings","Brooklyn",-73.958443509,40.714668579,"DELI D AMOUR CORP","268","METROPOLITAN AVE"
"NY",11106,"Queens","Queens",-73.939131859,40.762178088,"NEW SIAM TRADING INC","35-15","11TH STREET"
"NY",10029,"New York","Manhattan",-73.945528173,40.793050649,"TIPICOS GUATEMAYA MARINITA CORP","1715","LEXINGTON AVE"
"NY",10453,"Bronx","Bronx",-73.904289628,40.857364824,"JEROME AVE DOLLAR DISCOUNT & GROCERY COR","1","E 182ND ST"
"NY",10460,"Bronx","Bronx",-73.86890777,40.844327454,"MAX SUPER DISCOUNT LLC","620","MORRIS PARK"
"NY",10032,"New York","Manhattan",-73.937296473,40.843909649,"173 PHARMACY CORP","572","W 173RD STREET"
"NY",10002,"New York","Manhattan",-73.990178068,40.716927545,"FENG YUAN MEAT MARKET INC","337","GRAND ST"
"NY",11216,"Kings","Brooklyn",-73.950252968,40.684473571,"AFRICAN MARKET KEUR SOKHNA DIARRA INC","387","NOSTRAND AVE"
"NY",10460,"Bronx","Bronx",-73.885143601,40.846485282,"AMS PHARMACY INC","817","EAST 180TH ST"
"NY",10032,"New York","Manhattan",-73.944421594,40.834254618,"3788 FOOD CORP","3788","BROADWAY"
"NY",11215,"Kings","Brooklyn",-73.978702488,40.669857837,"CHEFFO FARMS LLC","453","4TH STREET"
"NY",11358,"Queens","Queens",-73.804421599,40.756232636,"LUCEROS GROCERY STORE INC","45-03","162ND STREET"
"NY",11217,"Kings","Brooklyn",-73.982101602,40.683027776,"FAST STAR 2 CORP","103","3RD AVE"
"NY",11236,"Kings","Brooklyn",-73.917978785,40.651436006,"REDAN DELI CORP","9007","AVENUE A"
"NY",10453,"Bronx","Bronx",-73.912021934,40.848481306,"JEROME DELI DELICIOUS INC","1769","JEROME AVE"
"NY",11218,"Kings","Brooklyn",-73.968932793,40.647273301,"RIZKQ INC","1111","CHURCH AVE"
"NY",11229,"Kings","Brooklyn",-73.957358894,40.608206047,"DELI HOT FOOD GRILL GROCERY INC","1702","E 16TH ST."
"NY",10461,"Bronx","Bronx",-73.833710902,40.83683461,"BIG O OF DA BRONX INC","3191","E TREMONT AVE"
"NY",11104,"Queens","Queens",-73.924012749,40.74407741,"VMAA INC","40-03","QUEENS BLVD"
"NY",10014,"New York","Manhattan",-74.005497589,40.733793988,"BIG NIGHT WEST VILLAGE LLC","236","W 10TH ST"
"NY",11205,"Kings","Brooklyn",-73.958926781,40.698602561,"ROSEMARY KOSHER LLC","392","FLUSHING AVE"
"NY",11207,"Kings","Brooklyn",-73.883046198,40.666102786,"DOMINUS RX LLC","740","NEW LOTS AVENUE"
"NY",10457,"Bronx","Bronx",-73.895963046,40.846753712,"SISI FAMILY DELI CORP","531","E TREMONT AVE"
"NY",10461,"Bronx","Bronx",-73.856121513,40.856535854,"2143 PALMA EXOTIC DELI CORP","2143","WILLIAMSBRIDGE RD"
"NY",11212,"Kings","Brooklyn",-73.909099081,40.662667505,"700 GOURMET DELI I CORP","700","ROCKAWAY AVE"
"NY",11355,"Queens","Queens",-73.825853036,40.745899636,"5717 BABY & MUM INC","57-17A","MAIN STREET"
"NY",11237,"Kings","Brooklyn",-73.915116197,40.701641175,"RICO AMBATENO DELI LLC","198","WYCKOFF AVENUE"
"NY",10459,"Bronx","Bronx",-73.896033962,40.821052689,"KELLY SREET DELI CORP","947","E 163RD STREET"
"NY",10016,"New York","Manhattan",-73.981211024,40.744655258,"GRACEFULLY DELI CORP","180","LEXINGTON AVE"
"NY",11237,"Kings","Brooklyn",-73.910283779,40.696549965,"KISHAN 422 INC","422","IRVING AVE"
"NY",11211,"Kings","Brooklyn",-73.951032317,40.713951299,"HENU FOOD INC","534","METROPOLITAN AVE"
"NY",11355,"Queens","Queens",-73.828796425,40.75862764,"HAPPY CORNER GROCERY INC","136-16","41ST AVE"
"NY",10457,"Bronx","Bronx",-73.902448459,40.851391922,"260 BURNSIDE DELI INC","260","E BURNSIDE AVE"
"NY",11206,"Kings","Brooklyn",-73.940780328,40.711806664,"DIAMOND EXPRESS DELI MARKET INC","98","BUSHWICK AVENUE"
"NY",11213,"Kings","Brooklyn",-73.930524482,40.673427354,"MASHA DELI GRILL MINI MARKET CORP","161","UTICA AVENUE"
"NY",10453,"Bronx","Bronx",-73.911526564,40.84748914,"TU PODEROSA GROCERY STORE CORP","27","EAST 175TH STREET"
"NY",10467,"Bronx","Bronx",-73.863190056,40.882507684,"PEACEFUL GROCERY MARKET LLC","3738","WHITE PLAINS ROAD"
"NY",10460,"Bronx","Bronx",-73.882180012,40.844715736,"180TH MINI MART CORP","906","E 180TH ST. FRONT 4"
"NY",10308,"Richmond","Staten Island",-74.15022263,40.550590731,"FRESH K&K MARKET INC","3978","AMBOY RD"
"NY",11234,"Kings","Brooklyn",-73.926909368,40.621256335,"M FINEST DELI CORP","5002","AVE M"
"NY",10013,"New York","Manhattan",-74.004158999,40.721226875,"HAPPIER 365 LLC","365","CANAL STREET"
"NY",10031,"New York","Manhattan",-73.952706351,40.822889596,"SABA GROCERY STORE CORP","3430","BROADWAY"
"NY",11208,"Kings","Brooklyn",-73.876006992,40.670728255,"SANTIAGO MINI MARKET CORP","1129","BLAKE AVE"
"NY",11426,"Queens","Queens",-73.721737561,40.742678093,"NEW MAHARAJA SUPERMARKET INC","248-13","UNION TPKE"
"NY",11385,"Queens","Queens",-73.92128424,40.708966815,"IMPERIAL FOOD & DRINKS CORP","10-20","CYPRESS AVENUE"
"NY",11249,"Kings","Brooklyn",-73.963745988,40.705316305,"LONDON COOK INC","110","TAYLOR STREET"
"NY",11414,"Queens","Queens",-73.851174514,40.666683065,"FRESH & TASTY SUSHI INC","82-35","153RD AVE"
"NY",11216,"Kings","Brooklyn",-73.950549352,40.68612007,"GATES CONVENIENCE 1 CORP","392","GATES AVE"
"NY",11235,"Kings","Brooklyn",-73.953825503,40.587184192,"1506 DELI & JUICE BAR CORP","1506","SHEEPSHEAD BAY RD"
"NY",11214,"Kings","Brooklyn",-74.001931927,40.607658164,"D STOP 18TH DELI CORP","8501","18TH AVE"
"NY",11375,"Queens","Queens",-73.848573944,40.722590317,"TRADER JOES EAST INC","69-65","YELLOWSTONE BLVD"
"NY",10027,"New York","Manhattan",-73.946206046,40.80814754,"TRADER JOES EAST INC","121","W 125TH ST"
"NY",10470,"Bronx","Bronx",-73.84693193,40.90189863,"AHMED DELI DISCOUNT CORPORATION","857","E 241ST STREET"
"NY",11204,"Kings","Brooklyn",-73.987832309,40.621256335,"DOLLAR TREE STORES INC","6101","18TH AVE"
"NY",10314,"Richmond","Staten Island",-74.166433818,40.576541606,"LWIN FAMILY CO LLC","2795","RICHMOND AVE"
"NY",11223,"Kings","Brooklyn",-73.982601917,40.605314877,"MINI MARKET FRESH FRUIT CORP","222","KINGS HIGHWAY"
"NY",11369,"Queens","Queens",-73.867503467,40.761481803,"LAGUARDIA PHARMACY INC","101-22","ASTORIA BLVD"
"NY",10029,"New York","Manhattan",-73.947674275,40.796384886,"J&T NANDA CORP","1660","MADISON AVENUE"
"NY",11221,"Kings","Brooklyn",-73.930830338,40.694655949,"1077 BROADWAY MINI MARKET CORP","1077","BROADWAY"
"NY",10460,"Bronx","Bronx",-73.869372799,40.844325307,"MACCA INC","609","MORRIS PARK AVE"
"NY",10027,"New York","Manhattan",-73.94599714,40.813063952,"KARIM DELI GROCERY CORPORATION","201","WEST 131ST STREET"
"NY",11207,"Kings","Brooklyn",-73.891167675,40.669871122,"FIVE STAR DELI AND GROCERY I CORP","740","SUTTER AVE"
"NY",10040,"New York","Manhattan",-73.928362454,40.862545344,"BERRY ORGANIC MARKET CORP","25","SHERMAN AVENUE"
"NY",11369,"Queens","Queens",-73.871827439,40.762621994,"97 QUICK DELI & GROCERY INC","97-13","ASTORIA BLVD"
"NY",10024,"New York","Manhattan",-73.972681935,40.786114666,"YI 86 CORP","524","COLUMBUS AVENUE"
"NY",10453,"Bronx","Bronx",-73.907855793,40.853724606,"BROTHER FINEST DELI CORP","6","W BURNSIDE AVE"
"NY",11374,"Queens","Queens",-73.860078442,40.712034274,"METRO 8955 GROCERY CORP","89-55","METROPOLITAN AVE"
"NY",11235,"Kings","Brooklyn",-73.95575334,40.577844531,"GNN DELI CORP","1133","BRIGHTON BEACH AVE"
"NY",10459,"Bronx","Bronx",-73.89006294,40.828469429,"VYSE 2021 DELI CORP","1175","VYSE AVE FRONT 1"
"NY",10454,"Bronx","Bronx",-73.91583855,40.809648033,"ST ANNS MEAT CORP","345","SAINT ANNS AVENUE"
"NY",11210,"Kings","Brooklyn",-73.948197977,40.636461652,"CELESTIN CHRISTIANNE","2016","NOSTRAND AVE"
"NY",10040,"New York","Manhattan",-73.927559803,40.860739714,"DIAZ GARDEN CORP","98","NAGLE AVE STORE 8"
"NY",11229,"Kings","Brooklyn",-73.940408255,40.600473825,"DELI & GROCERY FOOD INC","2950","AVE U"
"NY",11220,"Kings","Brooklyn",-74.00916551,40.646028966,"EL QUETZALITO 6 CORP","4803","5TH AVENUE"
"NY",11435,"Queens","Queens",-73.810833503,40.702265962,"INTERNATIONAL MINI MARKET NYC CORP","144-17","JAMAICA AVENUE"
"NY",10453,"Bronx","Bronx",-73.910326862,40.85211067,"WEST IN & OUT DELI CORP","19","W TREMONT AVE"
"NY",10467,"Bronx","Bronx",-73.867457199,40.868556719,"GREEN LEAF DELI MART CORP","2901","WHITE PLAINS RD"
"NY",11212,"Kings","Brooklyn",-73.911003952,40.672116801,"ROYAL MART & DELI CORP","1540","E NEW YORK AVE"
"NY",11354,"Queens","Queens",-73.833955822,40.764072482,"NEARR INC","133-11","35TH AVE"
"NY",11206,"Kings","Brooklyn",-73.942271636,40.711154719,"JURI DELI INC","203","MAUJER ST"
"NY",11212,"Kings","Brooklyn",-73.924100424,40.663998635,"1078 DEMPANADA GROCERY CORP","1078","RUTLAND RD"
"NY",10310,"Richmond","Staten Island",-74.108516878,40.645348355,"RICHMOND GAS INC","1125","RICHMOND TERRACE"
"NY",11211,"Kings","Brooklyn",-73.952244676,40.710132085,"HOOPER GARDEN FOOD CORP","381","HOOPER STREET"
"NY",11420,"Queens","Queens",-73.815650416,40.681993408,"BUENO 111 GROCERY CORP","125-06","111TH AVE"
"NY",10040,"New York","Manhattan",-73.928494469,40.854264149,"HEIGHTS DELI AND MINI MART INC","494","AUDUBON AVE"
"NY",11435,"Queens","Queens",-73.807090732,40.702144634,"CONDE DELI GROCERY CORP","90-38","148TH STREET"
"NY",10454,"Bronx","Bronx",-73.924767288,40.810077479,"FAMOUS DELI MARKET CORP","333","E 138TH ST"
"NY",10031,"New York","Manhattan",-73.94826981,40.82897842,"BROADWAY MARKET PLACE INC","3620","BROADWAY"
"NY",11226,"Kings","Brooklyn",-73.955610094,40.640693717,"BIG WAVES SMOKE SHOP AND GROCERY CORP","1217","FLATBUSH AVE"
"NY",11207,"Kings","Brooklyn",-73.889068511,40.663489686,"EMAD FOOD INC","516","NEW LOTS AVE"
"NY",10467,"Bronx","Bronx",-73.876915422,40.871421192,"DUA BALKAN MARKET CORP","371","E 204 ST"
"NY",11206,"Kings","Brooklyn",-73.949657392,40.701092473,"PESCADO KOSHER INC","249","WALLABOUT ST"
"NY",11206,"Kings","Brooklyn",-73.949657392,40.701092473,"NUGGETS KOSHER INC","249","WALLABOUT ST"
"NY",10023,"New York","Manhattan",-73.97828113,40.778436172,"NFM COLUMBUS LLC","284","COLUMBUS AVE"
"NY",11209,"Kings","Brooklyn",-74.030147593,40.62529767,"HERNANDEZ AND FAMILY LLC","8313","3RD AVE"
"NY",11103,"Queens","Queens",-73.91856116,40.76543144,"NFM 30TH AVE LLC","3416","30TH AVE"
"NY",11206,"Kings","Brooklyn",-73.948463934,40.704017235,"FOODOO LLC","28","TROOP AVE"
"NY",11206,"Kings","Brooklyn",-73.949657392,40.701092473,"GLATT KOSHER WHOLESALERS LLC","249","WALLABOUT ST."
"NY",11206,"Kings","Brooklyn",-73.949657392,40.701092473,"SUSHI TOKYO INC","249","WALLABOUT ST"
"NY",11355,"Queens","Queens",-73.828298791,40.757969325,"TIANCHENG FOOD TRADING INC","41-39","KISSENA BLVD"
"NY",10301,"Richmond","Staten Island",-74.086521759,40.634582849,"LAS CHAPINAS DELI & GROCERY LLC","74","CASTLETON AVE"
"NY",10467,"Bronx","Bronx",-73.866388003,40.871589291,"BURKE 99 CENTS AND UP CORP","717","BURKE AVENUE"
"NY",11419,"Queens","Queens",-73.814127675,40.69070627,"ELEVATED CONVENIENCE CORP","132-01","LIBERTY AVE"
"NY",11223,"Kings","Brooklyn",-73.978623615,40.596266822,"AVE U DELI & GROCERY INC","156","AVE U"
"NY",11211,"Kings","Brooklyn",-73.96035115,40.705928142,"SIG MEAT LLC","58","LEE AVE"
"NY",11206,"Kings","Brooklyn",-73.953289564,40.699589704,"SIG MEAT LLC","285","LEE AVE"
"NY",11205,"Kings","Brooklyn",-73.956463036,40.694434834,"SIG MEAT LLC","684","MYRTLE AVE"
"NY",11420,"Queens","Queens",-73.82087955,40.66987745,"BUY BUY CONVENIENCE AND GRILL CORP","135-21","LEFFERTS BLVD"
"NY",11236,"Kings","Brooklyn",-73.899708248,40.635995996,"TWINZ DELI CORP","9101","AVENUE L"
"NY",10473,"Bronx","Bronx",-73.8478588,40.819913936,"CASTLE HILL DEALS INC","650","CASTLE HILL AVE"
"NY",10029,"New York","Manhattan",-73.946306433,40.799830142,"D&R CONVENIENCE CORP","5","E 115TH STREET"
"NY",10033,"New York","Manhattan",-73.935181132,40.850855858,"HOME THREAD INC","4280","BROADWAY"
"NY",11385,"Queens","Queens",-73.905946483,40.702178658,"L&C GROCERY INC","17-02","MADISON ST"
"NY",11362,"Queens","Queens",-73.727808992,40.777264885,"JIA HE SUPERMARKET INC","249-26","NORTHERN BLVD"
"NY",10455,"Bronx","Bronx",-73.906089055,40.815509791,"HAPPY MARKET & DISCOUNT INC","784","E 152ND STREET"
"NY",10468,"Bronx","Bronx",-73.902437312,40.860401378,"SUGAR KING DELI GROCERY INC","2366","JEROME AVE"
"NY",10458,"Bronx","Bronx",-73.884008524,40.868015583,"YUMMY GOURMET DELI 1 CORP","379","BEDFORD PARK BLVD"
"NY",11429,"Queens","Queens",-73.730081159,40.705201724,"A&A FAMILY DELI CORP","227-02A","112TH AVE."
"NY",11212,"Kings","Brooklyn",-73.9181051,40.668471805,"BIG BITE GOURMET DELI CORP","1500","PITKIN AVENUE"
"NY",10029,"New York","Manhattan",-73.948308953,40.795516186,"METRO MARKETPLACE LLC","1630","MADISON AVENUE"
"NY",11373,"Queens","Queens",-73.879486152,40.741674612,"EL NOPALITO DELI CORP","85-25","WHITNEY AVE. STORE #6"
"NY",11373,"Queens","Queens",-73.883818171,40.745623368,"BLUES DELI LLC THE","81-20","BAXTER AVENUE"
"NY",11208,"Kings","Brooklyn",-73.872012009,40.683597033,"CHANGS FISH MARKET INC","3346","FULTON STREET"
"NY",11432,"Queens","Queens",-73.787277589,40.711348593,"DOLLAR TREE STORES INC","175-06","HILLSIDE AVE"
"NY",11422,"Queens","Queens",-73.739153395,40.660815607,"ASG RETAIL I LLC","143-60","243RD ST"
